timestamp,time,x,y,th,v,u,delta,v_ref,yolo_gain,state,gps_valid,platoon_enabled,platoon_is_leader,platoon_position,platoon_leader_id,platoon_setup_complete,v2v_active,v2v_peers,v2v_protocol,v2v_local_rate,v2v_fleet_rate
1765890077.4557803,2.0155370235443115,0.0,0.0,0.0,0.0,0.0,0.0,0.75,1.0,INITIALIZING,False,False,False,,,False,False,0,None,25.0,10.0
1765890077.7569351,2.3166916370391846,-0.06712260034491321,0.0051399089093406266,0.03235172436689027,0.0,0.0,0.0,0.75,1.0,WAITING_FOR_START,True,False,False,,,False,False,0,None,25.0,10.0
1765890077.861323,2.421079397201538,-0.06809038301051935,0.004869291129449099,0.03025928184653992,0.0,0.0,0.0,0.75,1.0,WAITING_FOR_START,True,False,False,,,False,False,0,None,25.0,10.0
1765890077.9711258,2.5308823585510254,-0.06745969954251246,0.004390627373743994,0.03456031992040298,0.0,0.0,0.0,0.75,1.0,WAITING_FOR_START,True,False,False,,,False,False,0,None,25.0,10.0
1765890078.08126,2.6410162448883057,-0.0674596836162934,0.004390615287157812,0.034678628762085495,0.0,0.0,0.0,0.75,1.0,WAITING_FOR_START,True,False,False,,,False,False,0,None,25.0,10.0
1765890078.1813607,2.741117000579834,-0.06712235733161873,0.004782023532493666,0.036075557431147764,0.0,0.0,0.0,0.75,1.0,WAITING_FOR_START,True,False,False,,,False,False,0,None,25.0,10.0
1765890078.2911847,2.8509409427642822,-0.06712235685694327,0.0047820240832716415,0.03605938638645423,0.0,0.0,0.0,0.75,1.0,WAITING_FOR_START,True,False,False,,,False,False,0,None,25.0,10.0
1765890078.4013321,2.9610884189605713,-0.06772603200663896,0.004434130217423321,0.03325301110754708,0.0,0.0,0.0,0.75,1.0,WAITING_FOR_START,True,False,False,,,False,False,0,None,25.0,10.0
1765890078.5026786,3.0624377727508545,-0.06783087573997502,0.0042501800473412465,0.036102710790030024,0.0,0.0,0.0,0.75,1.0,WAITING_FOR_START,True,False,False,,,False,False,0,None,25.0,10.0
1765890078.6112642,3.171020746231079,-0.06756697688511333,0.0052208046856436,0.03610114825110955,0.0,0.0,0.0,0.75,1.0,WAITING_FOR_START,True,False,False,,,False,False,0,None,25.0,10.0
1765890078.7216988,3.2814552783966064,-0.06755140236577599,0.005278088035805461,0.03608061775319271,0.0,0.0,0.0,0.75,1.0,WAITING_FOR_START,True,False,False,,,False,False,0,None,25.0,10.0
1765890078.8311727,3.3909289836883545,-0.0673748400439608,0.0051974319685640855,0.0325934701540227,0.0,0.0,0.0,0.75,1.0,WAITING_FOR_START,True,False,False,,,False,False,0,None,25.0,10.0
1765890078.9414508,3.501207113265991,-0.06728516098636904,0.004970123919500459,0.03505556240964047,0.0,0.0,0.0,0.75,1.0,WAITING_FOR_START,True,False,False,,,False,False,0,None,25.0,10.0
1765890079.0414724,3.601229190826416,-0.06728505619788737,0.00496985474238543,0.03547166164929738,0.0,0.0,0.0,0.75,1.0,WAITING_FOR_START,True,False,False,,,False,False,0,None,25.0,10.0
1765890079.151175,3.7109317779541016,-0.06714498049529011,0.0051335232233146195,0.035796977030397414,0.0,0.0,0.0,0.75,1.0,WAITING_FOR_START,True,False,False,,,False,False,0,None,25.0,10.0
1765890079.2612948,3.821051597595215,-0.06679636653919574,0.004809483129576858,0.035813636265135784,0.0,0.0,0.0,0.75,1.0,WAITING_FOR_START,True,False,False,,,False,False,0,None,25.0,10.0
1765890079.3711383,3.9308948516845703,-0.06679634349606049,0.00480946170195997,0.03580483465321915,0.0,0.0,0.0,0.75,1.0,WAITING_FOR_START,True,False,False,,,False,False,0,None,25.0,10.0
1765890079.4813032,4.041059494018555,-0.06654783385872069,0.0049883384245558255,0.036299885103917795,0.0,0.0,0.0,0.75,1.0,WAITING_FOR_START,True,False,False,,,False,False,0,None,25.0,10.0
1765890079.5911474,4.150904178619385,-0.06654783294320436,0.004988339083542592,0.03629788386731114,0.0,0.0,0.0,0.75,1.0,WAITING_FOR_START,True,False,False,,,False,False,0,None,25.0,10.0
1765890079.7015758,4.261332273483276,-0.06669160701997165,0.006234135723117432,0.03832850359024853,0.0,0.0,0.0,0.75,1.0,WAITING_FOR_START,True,False,False,,,False,False,0,None,25.0,10.0
1765890079.811121,4.370877265930176,-0.06676139761132452,0.00637789249297258,0.039210885358530234,0.0,0.0,0.0,0.75,1.0,WAITING_FOR_START,True,False,False,,,False,False,0,None,25.0,10.0
1765890079.9111462,4.470902442932129,-0.06703956368881356,0.006020615713234755,0.03918425612808818,0.0,0.0,0.0,0.75,1.0,WAITING_FOR_START,True,False,False,,,False,False,0,None,25.0,10.0
1765890080.0112534,4.571009874343872,-0.06708708009957186,0.005959585580982477,0.03916104135695608,0.0,0.0,0.0,0.75,1.0,WAITING_FOR_START,True,False,False,,,False,False,0,None,25.0,10.0
1765890080.1214936,4.6812498569488525,-0.06841333098875789,0.005178398167687402,0.04299323730485938,0.0,0.0,0.0,0.75,1.0,WAITING_FOR_START,True,False,False,,,False,False,0,None,25.0,10.0
1765890080.231128,4.790884494781494,-0.06724293270435674,0.005266051439860658,0.04471950196185048,0.0,0.0,0.0,0.75,1.0,WAITING_FOR_START,True,False,False,,,False,False,0,None,25.0,10.0
1765890080.331188,4.890944480895996,-0.06723324952617275,0.005266822447489405,0.04486046144431821,0.0,0.0,0.0,0.75,1.0,WAITING_FOR_START,True,False,False,,,False,False,0,None,25.0,10.0
1765890080.4413848,5.00114107131958,-0.06701175725897641,0.005240406331160331,0.047679589531329114,0.0,0.0,0.0,0.75,1.0,WAITING_FOR_START,True,False,False,,,False,False,0,None,25.0,10.0
1765890080.5414093,5.101165533065796,-0.06701149420380421,0.005240374958072729,0.04797125322137852,0.0,0.0,0.0,0.75,1.0,WAITING_FOR_START,True,False,False,,,False,False,0,None,25.0,10.0
1765890080.6510725,5.21082878112793,-0.06692318660381186,0.00515118238904268,0.04186336960192705,0.0,0.0,0.0,0.75,1.0,WAITING_FOR_START,True,False,False,,,False,False,0,None,25.0,10.0
1765890080.751076,5.310832738876343,-0.06705846427388204,0.005287727356285524,0.043799649361358384,0.0,0.0,0.0,0.75,1.0,WAITING_FOR_START,True,False,False,,,False,False,0,None,25.0,10.0
1765890080.8511496,5.410905838012695,-0.06705852561459295,0.005287789271655306,0.0440162300917839,0.0,0.0,0.0,0.75,1.0,WAITING_FOR_START,True,False,False,,,False,False,0,None,25.0,10.0
1765890080.961258,5.521014451980591,-0.06591085125354036,0.004338225857914174,0.04352710776228985,0.0,0.0,0.0,0.75,1.0,WAITING_FOR_START,True,False,False,,,False,False,0,None,25.0,10.0
1765890081.0613818,5.621138572692871,-0.06591077537930069,0.00433816308104603,0.04350969509697933,0.0,0.0,0.0,0.75,1.0,WAITING_FOR_START,True,False,False,,,False,False,0,None,25.0,10.0
1765890081.171088,5.730844497680664,-0.06723094876775383,0.0045776536155829155,0.0464851784333522,0.0,0.0,0.0,0.75,1.0,WAITING_FOR_START,True,False,False,,,False,False,0,None,25.0,10.0
1765890081.2711902,5.830946683883667,-0.06753743760419527,0.004538224694708459,0.04690008215739638,0.0,0.0,0.0,0.75,1.0,WAITING_FOR_START,True,False,False,,,False,False,0,None,25.0,10.0
1765890081.3812094,5.94096565246582,-0.06753744534259702,0.004538223698929545,0.04687804338207968,0.0,0.0,0.0,0.75,1.0,WAITING_FOR_START,True,False,False,,,False,False,0,None,25.0,10.0
1765890081.4911566,6.050912857055664,-0.06675568766816575,0.004656838658667916,0.0482363202694307,0.0,0.0,0.0,0.75,1.0,WAITING_FOR_START,True,False,False,,,False,False,0,None,25.0,10.0
1765890081.6018426,6.161599159240723,-0.06684051748741228,0.005268257068011691,0.04533645595038038,0.0,0.0,0.0,0.75,1.0,WAITING_FOR_START,True,False,False,,,False,False,0,None,25.0,10.0
1765890081.711191,6.270947456359863,-0.0672304826725597,0.005003538726621269,0.0439331973920547,0.0,0.0,0.0,0.75,1.0,WAITING_FOR_START,True,False,False,,,False,False,0,None,25.0,10.0
1765890081.8213396,6.381096363067627,-0.06729462134442811,0.004940478521620812,0.0464300716008772,0.0,0.0,0.0,0.75,1.0,WAITING_FOR_START,True,False,False,,,False,False,0,None,25.0,10.0
1765890081.9220078,6.481764316558838,-0.06678029175377383,0.004761289679749585,0.04715738487771759,0.0,0.0,0.0,0.75,1.0,WAITING_FOR_START,True,False,False,,,False,False,0,None,25.0,10.0
1765890082.031254,6.591010332107544,-0.06733384520160983,0.005207645284492681,0.046127902633834594,0.0,0.0,0.0,0.75,1.0,WAITING_FOR_START,True,False,False,,,False,False,0,None,25.0,10.0
1765890082.1412961,6.701052665710449,-0.06733847452140382,0.005211336126236666,0.04577862519610143,0.0,0.0,0.0,0.75,1.0,WAITING_FOR_START,True,False,False,,,False,False,0,None,25.0,10.0
1765890082.2418482,6.801604986190796,-0.06747595838720055,0.005197677249422728,0.044142166667989535,0.0,0.0,0.0,0.75,1.0,MANUAL_MODE,True,False,False,,,False,False,0,None,25.0,10.0
1765890082.35125,6.911006212234497,-0.06747612166989758,0.005197661027458901,0.04395990651245718,0.0,0.0,0.0,0.75,1.0,MANUAL_MODE,True,False,False,,,False,False,0,None,25.0,10.0
1765890082.4512637,7.0110204219818115,-0.06788345093231042,0.0043629262658294605,0.04757593034274432,0.0,0.0,0.0,0.75,1.0,MANUAL_MODE,True,False,False,,,False,False,0,None,25.0,10.0
1765890082.561253,7.121009349822998,-0.06804160949421983,0.00423107341504343,0.04496956510412531,0.0,0.0,0.0,0.75,1.0,MANUAL_MODE,True,False,False,,,False,False,0,None,25.0,10.0
1765890082.671146,7.230902194976807,-0.06804161993809812,0.004231064723064041,0.04484831813061341,0.0,0.0,0.0,0.75,1.0,MANUAL_MODE,True,False,False,,,False,False,0,None,25.0,10.0
1765890082.77116,7.330916166305542,-0.06769907642962925,0.004813224062800531,0.04686817220516115,0.0,0.0,0.0,0.75,1.0,MANUAL_MODE,True,False,False,,,False,False,0,None,25.0,10.0
1765890082.8711684,7.430924892425537,-0.06769906777998214,0.004813238763043629,0.04691660237854567,0.0,0.0,0.0,0.75,1.0,MANUAL_MODE,True,False,False,,,False,False,0,None,25.0,10.0
1765890082.9812846,7.541041135787964,-0.06797404536985832,0.004171578822835266,0.041254732474491185,0.0,0.0,0.0,0.75,1.0,MANUAL_MODE,True,False,False,,,False,False,0,None,25.0,10.0
1765890083.0813172,7.641073703765869,-0.06780843630761613,0.003933532156692803,0.045475176145333585,0.0,0.0,0.0,0.75,1.0,MANUAL_MODE,True,False,False,,,False,False,0,None,25.0,10.0
1765890083.1814196,7.741175889968872,-0.0678084360745752,0.003933531821722822,0.04552179429397363,0.0,0.0,0.0,0.75,1.0,MANUAL_MODE,True,False,False,,,False,False,0,None,25.0,10.0
1765890083.2911942,7.850950479507446,-0.06776116598189647,0.004033819594785029,0.04753237613081662,0.0,0.0,0.0,0.75,1.0,MANUAL_MODE,True,False,False,,,False,False,0,None,25.0,10.0
1765890083.4013448,7.961101055145264,-0.06740270649859043,0.004303169725639189,0.04722823979059232,0.0,0.0,0.0,0.75,1.0,MANUAL_MODE,True,False,False,,,False,False,0,None,25.0,10.0
1765890083.5111587,8.07091498374939,-0.06718976079757631,0.004633135092268812,0.04608701993757869,0.0,0.0,0.0,0.75,1.0,MANUAL_MODE,True,False,False,,,False,False,0,None,25.0,10.0
1765890083.6214242,8.181180477142334,-0.06719122884336375,0.004661063908759316,0.0458042602570794,0.0,0.0,0.0,0.75,1.0,MANUAL_MODE,True,False,False,,,False,False,0,None,25.0,10.0
1765890083.731145,8.290901184082031,-0.06675346463246488,0.004515171370203443,0.04649330752962744,0.0,0.0,0.0,0.75,1.0,MANUAL_MODE,True,False,False,,,False,False,0,None,25.0,10.0
1765890083.831181,8.390937328338623,-0.06675210086856753,0.004514716872154134,0.04661307837734885,0.0,0.0,0.0,0.75,1.0,MANUAL_MODE,True,False,False,,,False,False,0,None,25.0,10.0
1765890083.9413242,8.501080513000488,-0.06707756480691027,0.004885079142093176,0.04469799698497301,0.0,0.0,0.0,0.75,1.0,MANUAL_MODE,True,False,False,,,False,False,0,None,25.0,10.0
1765890084.051103,8.610859632492065,-0.06671624872624062,0.00514436032966756,0.03785929124962362,0.0,0.0,0.0,0.75,1.0,MANUAL_MODE,True,False,False,,,False,False,0,None,25.0,10.0
1765890084.151181,8.710937261581421,-0.0667161861568693,0.005144405182249623,0.03753231734873008,0.0,0.0,0.0,0.75,1.0,MANUAL_MODE,True,False,False,,,False,False,0,None,25.0,10.0
1765890084.2612581,8.821014642715454,-0.06749322662592852,0.004955120552100719,0.04646250476719871,0.0,0.0,0.0,0.75,1.0,MANUAL_MODE,True,False,False,,,False,False,0,None,25.0,10.0
1765890084.361385,8.921141624450684,-0.06749327799708116,0.0049551080382484606,0.04681515685056237,0.0,0.0,0.0,0.75,1.0,MANUAL_MODE,True,False,False,,,False,False,0,None,25.0,10.0
1765890084.4711533,9.030909538269043,-0.06767244191330714,0.005378554068995277,0.043618628480293964,0.0,0.0,0.0,0.75,1.0,MANUAL_MODE,True,False,False,,,False,False,0,None,25.0,10.0
1765890084.5813894,9.141145706176758,-0.06736444319474143,0.005592803251899015,0.043877232707072444,0.0,0.0,-0.045,0.75,1.0,MANUAL_MODE,True,False,False,,,False,False,0,None,25.0,10.0
1765890084.6911373,9.250893592834473,-0.06736444276132883,0.005592803553369849,0.04388301040806741,0.0,0.0,-0.105,0.75,1.0,MANUAL_MODE,True,False,False,,,False,False,0,None,25.0,10.0
1765890084.8013256,9.361081838607788,-0.06737095776017629,0.0056179484379450416,0.04429521533483438,0.0,0.0,-0.16500000000000004,0.75,1.0,MANUAL_MODE,True,False,False,,,False,False,0,None,25.0,10.0
1765890084.901341,9.461097240447998,-0.06730053692446437,0.005561188675203524,0.04214833554148267,0.0,0.0,-0.2250000000000001,0.75,1.0,MANUAL_MODE,True,False,False,,,False,False,0,None,25.0,10.0
1765890085.001368,9.561124324798584,-0.06723634690790536,0.005493327035675325,0.04163502374326544,0.0,0.0,-0.27000000000000013,0.75,1.0,MANUAL_MODE,True,False,False,,,False,False,0,None,25.0,10.0
1765890085.1111066,9.670862913131714,-0.06719667532747109,0.005451386263380038,0.04011253025340711,0.0,0.0,-0.3300000000000002,0.75,1.0,MANUAL_MODE,True,False,False,,,False,False,0,None,25.0,10.0
1765890085.2111602,9.77091670036316,-0.0671467594280955,0.006065033693174667,0.04189105794907011,0.0,0.0,-0.4,0.75,1.0,MANUAL_MODE,True,False,False,,,False,False,0,None,25.0,10.0
1765890085.3214223,9.881178617477417,-0.06673535363812458,0.006690461386702916,0.04346076310444147,0.0,0.0,-0.4,0.75,1.0,MANUAL_MODE,True,False,False,,,False,False,0,None,25.0,10.0
1765890085.4311693,9.990925550460815,-0.06673200538343577,0.006695291317561623,0.043556340048859,0.0,0.0,-0.37874540625000014,0.75,1.0,MANUAL_MODE,True,False,False,,,False,False,0,None,25.0,10.0
1765890085.5412471,10.101003646850586,-0.06700817657277282,0.006074036030230635,0.040118552602026014,0.0,0.0,-0.4,0.75,1.0,MANUAL_MODE,True,False,False,,,False,False,0,None,25.0,10.0
1765890085.6511357,10.210891962051392,-0.06700830176370212,0.006073754409519674,0.039846585738938956,0.0,0.0,-0.4,0.75,1.0,MANUAL_MODE,True,False,False,,,False,False,0,None,25.0,10.0
1765890085.7613106,10.321066856384277,-0.06601002027592659,0.0059886522202663925,0.0428061773506796,0.0,0.0,-0.4,0.75,1.0,MANUAL_MODE,True,False,False,,,False,False,0,None,25.0,10.0
1765890085.8613281,10.4210844039917,-0.06621846309444814,0.005710743926647673,0.044271472571281834,0.0,0.0,-0.4,0.75,1.0,MANUAL_MODE,True,False,False,,,False,False,0,None,25.0,10.0
1765890085.9613326,10.52108883857727,-0.06621847687652603,0.005710725553911061,0.0443054077727405,0.0,0.0,-0.4,0.75,1.0,MANUAL_MODE,True,False,False,,,False,False,0,None,25.0,10.0
1765890086.0619533,10.621709823608398,-0.06669021877731601,0.005700932047384503,0.04717902191536805,0.0,0.0,-0.4,0.75,1.0,MANUAL_MODE,True,False,False,,,False,False,0,None,25.0,10.0
1765890086.1711528,10.7309091091156,-0.06669024996479493,0.005700931399922877,0.04725516920005646,0.0,0.0,-0.4,0.75,1.0,MANUAL_MODE,True,False,False,,,False,False,0,None,25.0,10.0
1765890086.2711625,10.830919027328491,-0.06603971361162643,0.006258442304791046,0.04978944096881133,0.0,0.0,-0.4,0.75,1.0,MANUAL_MODE,True,False,False,,,False,False,0,None,25.0,10.0
1765890086.3812609,10.941017150878906,-0.0662728863276327,0.006398927789567264,0.04534449589831624,0.0,0.0,-0.4,0.75,1.0,MANUAL_MODE,True,False,False,,,False,False,0,None,25.0,10.0
1765890086.4812918,11.041048049926758,-0.06627288718670635,0.006398928307068723,0.04527670379892612,0.0,0.0,-0.4,0.75,1.0,MANUAL_MODE,True,False,False,,,False,False,0,None,25.0,10.0
1765890086.591157,11.15091323852539,-0.06630777231826569,0.006410757988377587,0.0434626865105745,0.0,0.0,-0.4,0.75,1.0,MANUAL_MODE,True,False,False,,,False,False,0,None,25.0,10.0
1765890086.7012577,11.261014223098755,-0.06652730376917688,0.006164417480067642,0.045490024231391146,0.0,0.0,-0.4,0.75,1.0,MANUAL_MODE,True,False,False,,,False,False,0,None,25.0,10.0
1765890086.8014235,11.361179828643799,-0.06609472627464388,0.006115422659275123,0.047435138450828696,0.0,0.0,-0.4,0.75,1.0,MANUAL_MODE,True,False,False,,,False,False,0,None,25.0,10.0
1765890086.9016914,11.461447715759277,-0.06580420231906445,0.006111149020557703,0.046004129939679395,0.0,0.0,-0.4,0.75,1.0,MANUAL_MODE,True,False,False,,,False,False,0,None,25.0,10.0
1765890087.0111756,11.570931673049927,-0.06612555745680225,0.006131821203250197,0.04735411307336168,0.0,0.0,-0.4,0.75,1.0,MANUAL_MODE,True,False,False,,,False,False,0,None,25.0,10.0
1765890087.1213558,11.681112051010132,-0.06620449531764387,0.006204760301834484,0.05013138920017912,0.0,0.0,-0.4,0.75,1.0,MANUAL_MODE,True,False,False,,,False,False,0,None,25.0,10.0
1765890087.2312174,11.790973663330078,-0.06620501825572743,0.006206269867041791,0.05055800957616796,0.0,0.0,-0.4,0.75,1.0,MANUAL_MODE,True,False,False,,,False,False,0,None,25.0,10.0
1765890087.3413281,11.901084661483765,-0.06590813717934728,0.00602155646907488,0.051423990116601814,0.0,0.0,-0.4,0.75,1.0,MANUAL_MODE,True,False,False,,,False,False,0,None,25.0,10.0
1765890087.4511108,12.01086711883545,-0.0659077845885708,0.006021337094228578,0.05149723380543936,0.0,0.0,-0.4,0.75,1.0,MANUAL_MODE,True,False,False,,,False,False,0,None,25.0,10.0
1765890087.5511296,12.110885858535767,-0.06648361060381294,0.005995583407766457,0.055033021976345964,0.0,0.0,-0.4,0.75,1.0,MANUAL_MODE,True,False,False,,,False,False,0,None,25.0,10.0
1765890087.6511502,12.210906744003296,-0.06642134633916644,0.006210860265693298,0.05604520102232513,0.0,0.0,-0.4,0.75,1.0,MANUAL_MODE,True,False,False,,,False,False,0,None,25.0,10.0
1765890087.7511609,12.310917377471924,-0.06642133551617015,0.006210897532161498,0.05603319763157266,0.0,0.0,-0.4,0.75,1.0,MANUAL_MODE,True,False,False,,,False,False,0,None,25.0,10.0
1765890087.8613508,12.421107053756714,-0.06648870460013884,0.0061045104783285075,0.052434800525326786,0.0,0.0,-0.4,0.75,1.0,MANUAL_MODE,True,False,False,,,False,False,0,None,25.0,10.0
1765890087.9711468,12.530903100967407,-0.06648870905399779,0.006104503444940138,0.05228391905544161,0.0,0.0,-0.4,0.75,1.0,MANUAL_MODE,True,False,False,,,False,False,0,None,25.0,10.0
1765890088.0711696,12.630926132202148,-0.06557665108562301,0.0067656283047750725,0.05229338659273797,0.0,0.0,-0.4,0.75,1.0,MANUAL_MODE,True,False,False,,,False,False,0,None,25.0,10.0
1765890088.1812427,12.740998983383179,-0.06566512719343835,0.006631592751784538,0.05035731682145261,0.0,0.0,-0.4,0.75,1.0,MANUAL_MODE,True,False,False,,,False,False,0,None,25.0,10.0
1765890088.2815394,12.841295957565308,-0.0656651275194697,0.006631592257933845,0.05035194345784433,0.0,0.0,-0.4,0.75,1.0,MANUAL_MODE,True,False,False,,,False,False,0,None,25.0,10.0
1765890088.3911602,12.950916528701782,-0.06569106288608102,0.006353985906449019,0.04924721998187653,0.0,0.0,-0.4,0.75,1.0,MANUAL_MODE,True,False,False,,,False,False,0,None,25.0,10.0
1765890088.501315,13.061071634292603,-0.0655119561748237,0.006687188921986549,0.04801244470967436,0.0,0.0,-0.4,0.75,1.0,MANUAL_MODE,True,False,False,,,False,False,0,None,25.0,10.0
1765890088.6017256,13.161482095718384,-0.06522831359892382,0.00685288590882018,0.04511186108894183,0.0,0.0,-0.4,0.75,1.0,MANUAL_MODE,True,False,False,,,False,False,0,None,25.0,10.0
1765890088.7111208,13.270877122879028,-0.06512142546206455,0.006828020086723172,0.0475381661181169,0.0,0.0,-0.4,0.75,1.0,MANUAL_MODE,True,False,False,,,False,False,0,None,25.0,10.0
1765890088.8111422,13.370898485183716,-0.06488211450819234,0.006324833718269375,0.04843401556494964,0.0,0.0,-0.4,0.75,1.0,MANUAL_MODE,True,False,False,,,False,False,0,None,25.0,10.0
1765890088.9212868,13.481042861938477,-0.06484123532389711,0.006238879232544578,0.04947901928425047,0.0,0.0,-0.4,0.75,1.0,MANUAL_MODE,True,False,False,,,False,False,0,None,25.0,10.0
1765890089.0212982,13.5810546875,-0.0649103689320293,0.00589646221058577,0.05085441537393809,0.0,0.0,-0.4,0.75,1.0,MANUAL_MODE,True,False,False,,,False,False,0,None,25.0,10.0
1765890089.1311064,13.690862655639648,-0.06499380938235066,0.005942749660822164,0.05209214149247021,0.0,0.0,-0.4,0.75,1.0,MANUAL_MODE,True,False,False,,,False,False,0,None,25.0,10.0
1765890089.2311692,13.790925741195679,-0.06499448104058729,0.0059431901371254465,0.05224725915026163,0.0,0.0,-0.4,0.75,1.0,MANUAL_MODE,True,False,False,,,False,False,0,None,25.0,10.0
1765890089.3311906,13.890947103500366,-0.06499251892207368,0.005751387785261313,0.052506059964276375,0.0,0.0,-0.4,0.75,1.0,MANUAL_MODE,True,False,False,,,False,False,0,None,25.0,10.0
1765890089.4412422,14.000998497009277,-0.06499250283806143,0.005749815530175521,0.05255493041230519,0.0,0.0,-0.4,0.75,1.0,MANUAL_MODE,True,False,False,,,False,False,0,None,25.0,10.0
1765890089.5412428,14.100999116897583,-0.0649083654257883,0.006350677597776682,0.0528585959140635,0.0,0.0,-0.4,0.75,1.0,MANUAL_MODE,True,False,False,,,False,False,0,None,25.0,10.0
1765890089.6412442,14.201000452041626,-0.06516298107273213,0.006477370079496318,0.05288198429085611,0.0,0.0,-0.4,0.75,1.0,MANUAL_MODE,True,False,False,,,False,False,0,None,25.0,10.0
1765890089.741244,14.301000356674194,-0.06516309653754157,0.006477427187235433,0.05286909574903298,0.0,0.0,-0.4,0.75,1.0,MANUAL_MODE,True,False,False,,,False,False,0,None,25.0,10.0
1765890089.8412638,14.401020765304565,-0.06523481401233869,0.006170445566202493,0.05513264375235938,0.0,0.0,-0.4,0.75,1.0,MANUAL_MODE,True,False,False,,,False,False,0,None,25.0,10.0
1765890089.941269,14.501025199890137,-0.06553513495304682,0.005845024184602537,0.057231924618368346,0.0,0.0,-0.4,0.75,1.0,MANUAL_MODE,True,False,False,,,False,False,0,None,25.0,10.0
1765890090.0511665,14.610922813415527,-0.06553549152806508,0.005844638130741193,0.05741279235999386,0.0,0.0,-0.34916864804687486,0.75,1.0,MANUAL_MODE,True,False,False,,,False,False,0,None,25.0,10.0
1765890090.161236,14.72099232673645,-0.06394420427468563,0.006277536742488032,0.05335950962790381,0.0,0.0,-0.2701800438313183,0.75,1.0,MANUAL_MODE,True,False,False,,,False,False,0,None,25.0,10.0
1765890090.2612429,14.820999145507812,-0.06394416409271504,0.006277547673713208,0.05324665530820738,0.0,0.0,-0.23164561507987647,0.75,1.0,MANUAL_MODE,True,False,False,,,False,False,0,None,25.0,10.0
1765890090.3612719,14.921028137207031,-0.06434401391438131,0.006319433673443013,0.05175365108263552,0.0,0.0,-0.18867680126765357,0.75,1.0,MANUAL_MODE,True,False,False,,,False,False,0,None,25.0,10.0
1765890090.4613862,15.021142721176147,-0.06485546461192143,0.005734925991235292,0.04834139165099849,0.0,0.0,-0.16176677248685445,0.75,1.0,MANUAL_MODE,True,False,False,,,False,False,0,None,25.0,10.0
1765890090.5618098,15.1215660572052,-0.0648554984228566,0.005734887348493178,0.04825238544214372,0.0,0.0,-0.13869478656091683,0.75,1.0,MANUAL_MODE,True,False,False,,,False,False,0,None,25.0,10.0
1765890090.6711419,15.230898141860962,-0.06494023776612781,0.00586776478575712,0.051805299882135,0.0,0.0,-0.1073193819714686,0.75,1.0,MANUAL_MODE,True,False,False,,,False,False,0,None,25.0,10.0
1765890090.7813847,15.341140985488892,-0.06494023990590199,0.005867768141078239,0.05191336485093068,0.0,0.0,-0.08741230736189849,0.75,1.0,MANUAL_MODE,True,False,False,,,False,False,0,None,25.0,10.0
1765890090.8911045,15.450860977172852,-0.06415404738814397,0.005934903197892461,0.053418767382774845,0.0,0.0,-0.07494512702440771,0.75,1.0,MANUAL_MODE,True,False,False,,,False,False,0,None,25.0,10.0
1765890090.9911141,15.550870656967163,-0.06444999718927506,0.0068163910601044654,0.05435843573860222,0.0,0.0,-0.057991110650002765,0.75,1.0,MANUAL_MODE,True,False,False,,,False,False,0,None,25.0,10.0
1765890091.101423,15.661179780960083,-0.06459751878413851,0.007376406869653296,0.053762496379934355,0.0,0.0,-0.04723412206886881,0.75,1.0,MANUAL_MODE,True,False,False,,,False,False,0,None,25.0,10.0
1765890091.2110868,15.770843267440796,-0.06468869186773868,0.007722514836523325,0.052024639713168064,0.0,0.0,-0.03847248763835657,0.75,1.0,MANUAL_MODE,True,False,False,,,False,False,0,None,25.0,10.0
1765890091.3111095,15.870866060256958,-0.06516413186937352,0.007796838428960126,0.05288954038873239,0.0,0.0,-0.03133608163448915,0.75,1.0,MANUAL_MODE,True,False,False,,,False,False,0,None,25.0,10.0
1765890091.411145,15.970901250839233,-0.06448532967742458,0.008109606820171,0.05493695433325829,0.0,0.0,-0.026866772991370132,0.75,1.0,MANUAL_MODE,True,False,False,,,False,False,0,None,25.0,10.0
1765890091.521432,16.081188201904297,-0.0643555033296119,0.00816086531259765,0.05613238618816396,0.0,0.0,-0.020788996792862058,0.75,1.0,MANUAL_MODE,True,False,False,,,False,False,0,None,25.0,10.0
1765890091.631076,16.190832376480103,-0.06414912795218201,0.007973357010397144,0.05823887836797059,0.0,0.0,-0.017823966125280106,0.75,1.0,MANUAL_MODE,True,False,False,,,False,False,0,None,25.0,10.0
1765890091.7412465,16.301002740859985,-0.06414743623820048,0.00797181995475182,0.058755013861873095,0.0,0.0,-0.013791845218387479,0.75,1.0,MANUAL_MODE,True,False,False,,,False,False,0,None,25.0,10.0
1765890091.8413773,16.40113353729248,-0.06435375426543355,0.007737278575042833,0.06000058590560364,0.0,0.0,-0.0124471403095947,0.75,1.0,MANUAL_MODE,True,False,False,,,False,False,0,None,25.0,10.0
1765890091.9414368,16.501193046569824,-0.06485897464159436,0.007358049263350328,0.05699768584546305,0.0,0.0,0.0,0.75,1.0,MANUAL_MODE,True,False,False,,,False,False,0,None,25.0,10.0
1765890092.041443,16.601199626922607,-0.0648595743754347,0.007357599202524907,0.056605427882009174,0.0,0.0,0.0,0.75,1.0,MANUAL_MODE,True,False,False,,,False,False,0,None,25.0,10.0
1765890092.1511374,16.710893630981445,-0.06461481995505548,0.0075502374527489004,0.06099616936486907,0.0,0.0,0.0,0.75,1.0,MANUAL_MODE,True,False,False,,,False,False,0,None,25.0,10.0
1765890092.2511635,16.810920000076294,-0.0645651105545071,0.0073272327677838004,0.06354407111274796,0.0,0.0,0.0,0.75,1.0,MANUAL_MODE,True,False,False,,,False,False,0,None,25.0,10.0
1765890092.351253,16.911009311676025,-0.06456508807102286,0.007327131638213542,0.06367432786298544,0.0,0.0,0.0,0.75,1.0,MANUAL_MODE,True,False,False,,,False,False,0,None,25.0,10.0
1765890092.4613032,17.02105951309204,-0.06426923062563403,0.007261609349574928,0.06150988693843917,0.0,0.0,0.0,0.75,1.0,MANUAL_MODE,True,False,False,,,False,False,0,None,25.0,10.0
1765890092.561471,17.121227502822876,-0.0642692110661148,0.007261605017811497,0.061401265557421425,0.0,0.0,0.0,0.75,1.0,MANUAL_MODE,True,False,False,,,False,False,0,None,25.0,10.0
1765890092.6711287,17.23088502883911,-0.06402322986928344,0.007839708127457703,0.05932115268229765,0.0,0.0,0.0,0.75,1.0,MANUAL_MODE,True,False,False,,,False,False,0,None,25.0,10.0
1765890092.7712698,17.331026554107666,-0.06441843378193796,0.008184481262588535,0.06261344258475798,0.0,0.0,0.0,0.75,1.0,MANUAL_MODE,True,False,False,,,False,False,0,None,25.0,10.0
1765890092.8813457,17.441102027893066,-0.06441844376148345,0.008184489968179698,0.0626952375342249,0.0,0.0,0.0,0.75,1.0,MANUAL_MODE,True,False,False,,,False,False,0,None,25.0,10.0
1765890092.9815066,17.54126286506653,-0.06373327788466401,0.008223984773686679,0.0637416896108487,0.0,0.0,0.0,0.75,1.0,MANUAL_MODE,True,False,False,,,False,False,0,None,25.0,10.0
1765890093.0816052,17.641361474990845,-0.06373327536049492,0.008223984919186581,0.0637335042846372,0.0,0.0,0.0,0.75,1.0,MANUAL_MODE,True,False,False,,,False,False,0,None,25.0,10.0
1765890093.1911466,17.750902891159058,-0.06396330542762059,0.008032909247788426,0.06620727067822063,0.0,0.0,0.0,0.75,1.0,MANUAL_MODE,True,False,False,,,False,False,0,None,25.0,10.0
1765890093.301315,17.861071586608887,-0.06431914782675716,0.008589275990207635,0.06818347333170038,0.0,0.0,0.0,0.75,1.0,MANUAL_MODE,True,False,False,,,False,False,0,None,25.0,10.0
1765890093.4016652,17.961421489715576,-0.06395343993421906,0.008430493423996408,0.06788926044523524,0.0,0.0,0.0,0.75,1.0,MANUAL_MODE,True,False,False,,,False,False,0,None,25.0,10.0
1765890093.5111382,18.070894956588745,-0.06372742002792829,0.00833236035080983,0.0670891407526204,0.0,0.0,0.0,0.75,1.0,MANUAL_MODE,True,False,False,,,False,False,0,None,25.0,10.0
1765890093.6112533,18.1710102558136,-0.06391399370628868,0.008478577506080708,0.0661145235693823,0.0,0.0,0.0,0.75,1.0,MANUAL_MODE,True,False,False,,,False,False,0,None,25.0,10.0
1765890093.721675,18.281431436538696,-0.06416222524140062,0.007603176391656038,0.062489687825593165,0.0,0.0,0.0,0.75,1.0,MANUAL_MODE,True,False,False,,,False,False,0,None,25.0,10.0
1765890093.8311484,18.390904664993286,-0.06416399881206679,0.007595795755810002,0.06186883948153543,0.0,0.0,0.0,0.75,1.0,MANUAL_MODE,True,False,False,,,False,False,0,None,25.0,10.0
1765890093.9412389,18.50099515914917,-0.0644839749590318,0.007928122602984526,0.06401974504297758,0.0,0.0,0.06,0.75,1.0,MANUAL_MODE,True,False,False,,,False,False,0,None,25.0,10.0
1765890094.0414126,18.601168870925903,-0.06448435497853941,0.00792851729079719,0.06428979530214463,0.0,0.0,0.09,0.75,1.0,MANUAL_MODE,True,False,False,,,False,False,0,None,25.0,10.0
1765890094.151217,18.710973501205444,-0.06374089304882839,0.007305688745660956,0.0670762009589092,0.0,0.0,0.16500000000000004,0.75,1.0,MANUAL_MODE,True,False,False,,,False,False,0,None,25.0,10.0
1765890094.2512372,18.810993432998657,-0.06404524028459843,0.007775261695556745,0.06803191775763029,0.0,0.0,0.21000000000000008,0.75,1.0,MANUAL_MODE,True,False,False,,,False,False,0,None,25.0,10.0
1765890094.361249,18.921005249023438,-0.06404537830627349,0.007775474606115861,0.06806196813564291,0.0,0.0,0.28500000000000014,0.75,1.0,MANUAL_MODE,True,False,False,,,False,False,0,None,25.0,10.0
1765890094.4612668,19.021023273468018,-0.06336560200518224,0.007297884381111583,0.0661806923542736,0.0,0.0,0.3300000000000002,0.75,1.0,MANUAL_MODE,True,False,False,,,False,False,0,None,25.0,10.0
1765890094.5711207,19.130877017974854,-0.06336558483998447,0.0072978723213639116,0.0661210271784709,0.0,0.0,0.39000000000000024,0.75,1.0,MANUAL_MODE,True,False,False,,,False,False,0,None,25.0,10.0
1765890094.6711962,19.230952501296997,-0.06477925815150865,0.00747881386563021,0.06662211103163163,0.0,0.0,0.4,0.75,1.0,MANUAL_MODE,True,False,False,,,False,False,0,None,25.0,10.0
1765890094.78124,19.340996265411377,-0.06484213775626287,0.008031974329694595,0.0707854055107564,0.0,0.0,0.4,0.75,1.0,MANUAL_MODE,True,False,False,,,False,False,0,None,25.0,10.0
1765890094.8812468,19.44100308418274,-0.06484213784472702,0.008031975108082876,0.0707858974563802,0.0,0.0,0.4,0.75,1.0,MANUAL_MODE,True,False,False,,,False,False,0,None,25.0,10.0
1765890094.9813602,19.54111671447754,-0.06456234087050244,0.00804451697954099,0.07255876266491157,0.0,0.0,0.4,0.75,1.0,MANUAL_MODE,True,False,False,,,False,False,0,None,25.0,10.0
1765890095.0814228,19.641179084777832,-0.0651804064201444,0.0075535306511923675,0.07510038348808923,0.0,0.0,0.4,0.75,1.0,MANUAL_MODE,True,False,False,,,False,False,0,None,25.0,10.0
1765890095.1911492,19.750905990600586,-0.06518040869711812,0.007553528842385082,0.07507382492405323,0.0,0.0,0.4,0.75,1.0,MANUAL_MODE,True,False,False,,,False,False,0,None,25.0,10.0
1765890095.301618,19.861374855041504,-0.06509173526812305,0.0076850632080501325,0.07062103739985037,0.0,0.0,0.4,0.75,1.0,MANUAL_MODE,True,False,False,,,False,False,0,None,25.0,10.0
1765890095.4111693,19.9709255695343,-0.06410309953043161,0.008436291772193221,0.07117412785457233,0.0,0.0,0.4,0.75,1.0,MANUAL_MODE,True,False,False,,,False,False,0,None,25.0,10.0
1765890095.511249,20.071005821228027,-0.06358486685313362,0.008347378947178727,0.07169734199562505,0.0,0.0,0.4,0.75,1.0,MANUAL_MODE,True,False,False,,,False,False,0,None,25.0,10.0
1765890095.6213677,20.181123971939087,-0.06352519004331962,0.008310270353817309,0.07150246367702273,0.0,0.0,0.4,0.75,1.0,MANUAL_MODE,True,False,False,,,False,False,0,None,25.0,10.0
1765890095.7214818,20.281238079071045,-0.06354832964323703,0.008309919608515801,0.07214029074969819,0.0,0.0,0.4,0.75,1.0,MANUAL_MODE,True,False,False,,,False,False,0,None,25.0,10.0
1765890095.831251,20.3910071849823,-0.06354851932472945,0.008309916733387143,0.07230309719729267,0.0,0.0,0.4,0.75,1.0,MANUAL_MODE,True,False,False,,,False,False,0,None,25.0,10.0
1765890095.9415343,20.501290798187256,-0.06403181549455052,0.008942727769599595,0.06890707148148412,0.0,0.0,0.4,0.75,1.0,MANUAL_MODE,True,False,False,,,False,False,0,None,25.0,10.0
1765890096.0511158,20.610872268676758,-0.06386618959384432,0.00835400963408304,0.06966828607776954,0.0,0.0,0.4,0.75,1.0,MANUAL_MODE,True,False,False,,,False,False,0,None,25.0,10.0
1765890096.1612399,20.720996141433716,-0.0638661142540218,0.008353742422193673,0.06978966988059288,0.0,0.0,0.4,0.75,1.0,MANUAL_MODE,True,False,False,,,False,False,0,None,25.0,10.0
1765890096.2612567,20.8210129737854,-0.06382348798175994,0.00900926839817868,0.07224837707418708,0.0,0.0,0.4,0.75,1.0,MANUAL_MODE,True,False,False,,,False,False,0,None,25.0,10.0
1765890096.3711658,20.930922031402588,-0.06382348516368089,0.009009311735865068,0.07233781669990602,0.0,0.0,0.4,0.75,1.0,MANUAL_MODE,True,False,False,,,False,False,0,None,25.0,10.0
1765890096.4712317,21.030987977981567,-0.06347847830648756,0.008616913088208248,0.07145611082684589,0.0,0.0,0.4,0.75,1.0,MANUAL_MODE,True,False,False,,,False,False,0,None,25.0,10.0
1765890096.5813653,21.141121864318848,-0.06334614259848312,0.00895780164857441,0.0735714829775338,0.0,0.0,0.4,0.75,1.0,MANUAL_MODE,True,False,False,,,False,False,0,None,25.0,10.0
1765890096.691138,21.250895023345947,-0.06334614241226869,0.008957802128267625,0.07357042907948674,0.0,0.0,0.4,0.75,1.0,MANUAL_MODE,True,False,False,,,False,False,0,None,25.0,10.0
1765890096.7912657,21.351022005081177,-0.06308583468091597,0.00888854037832576,0.07355103098855675,0.0,0.0,0.4,0.75,1.0,MANUAL_MODE,True,False,False,,,False,False,0,None,25.0,10.0
1765890096.9013243,21.46108078956604,-0.06316077540893232,0.008618385573048977,0.07410563485222355,0.0,0.0,0.4,0.75,1.0,MANUAL_MODE,True,False,False,,,False,False,0,None,25.0,10.0
1765890097.0017002,21.56145668029785,-0.06381761032960441,0.008899092338601063,0.07594656080040263,0.0,0.0,0.4,0.75,1.0,MANUAL_MODE,True,False,False,,,False,False,0,None,25.0,10.0
1765890097.111134,21.67089033126831,-0.06419493164751879,0.009175768374740295,0.0763904119285499,0.0,0.0,0.4,0.75,1.0,MANUAL_MODE,True,False,False,,,False,False,0,None,25.0,10.0
1765890097.2212791,21.781035661697388,-0.06376293972118517,0.009192396241773709,0.07672320274150835,0.0,0.0,0.4,0.75,1.0,MANUAL_MODE,True,False,False,,,False,False,0,None,25.0,10.0
1765890097.3311517,21.890908241271973,-0.06312495317542301,0.009033675827639708,0.07608876725013047,0.0,0.0,0.4,0.75,1.0,MANUAL_MODE,True,False,False,,,False,False,0,None,25.0,10.0
1765890097.4311633,21.990919589996338,-0.06311980044704768,0.009032371790233059,0.07587624130224935,0.0,0.0,0.4,0.75,1.0,MANUAL_MODE,True,False,False,,,False,False,0,None,25.0,10.0
1765890097.541279,22.101035356521606,-0.06229148772999839,0.008819219751317222,0.07168921845450527,0.0,0.0,0.4,0.75,1.0,MANUAL_MODE,True,False,False,,,False,False,0,None,25.0,10.0
1765890097.6413558,22.201112031936646,-0.062290503984824955,0.00881896660140755,0.07120856400871833,0.0,0.0,0.4,0.75,1.0,MANUAL_MODE,True,False,False,,,False,False,0,None,25.0,10.0
1765890097.7511442,22.31090474128723,-0.062396973907823124,0.008150563288671758,0.07486236509083533,0.0,0.0,0.4,0.75,1.0,MANUAL_MODE,True,False,False,,,False,False,0,None,25.0,10.0
1765890097.851147,22.410903215408325,-0.06256915643824623,0.008397434778295278,0.07658244066597142,0.0,0.0,0.4,0.75,1.0,MANUAL_MODE,True,False,False,,,False,False,0,None,25.0,10.0
1765890097.9613647,22.52112102508545,-0.06256923446832136,0.00839754682460307,0.07667483054433522,0.0,0.0,0.4,0.75,1.0,MANUAL_MODE,True,False,False,,,False,False,0,None,25.0,10.0
1765890098.0613685,22.621124982833862,-0.06321937766686711,0.008745125638679003,0.07921721635702372,0.0,0.0,0.4,0.75,1.0,MANUAL_MODE,True,False,False,,,False,False,0,None,25.0,10.0
1765890098.1711564,22.730912446975708,-0.06321942064869099,0.008745148617572578,0.07928196510641161,0.0,0.0,0.4,0.75,1.0,MANUAL_MODE,True,False,False,,,False,False,0,None,25.0,10.0
1765890098.2812467,22.841002941131592,-0.06301994661889317,0.00869846813565361,0.07750134785780549,0.0,0.0,0.4,0.75,1.0,MANUAL_MODE,True,False,False,,,False,False,0,None,25.0,10.0
1765890098.381246,22.94100284576416,-0.06333776210606745,0.0085845248574403,0.08004977266599589,0.0,0.0,0.4,0.75,1.0,MANUAL_MODE,True,False,False,,,False,False,0,None,25.0,10.0
1765890098.4813051,23.041061401367188,-0.06333776327691037,0.00858452443767081,0.08006034099797432,0.0,0.0,0.4,0.75,1.0,MANUAL_MODE,True,False,False,,,False,False,0,None,25.0,10.0
1765890098.5911732,23.15092945098877,-0.06413548784478813,0.008182247677235148,0.08383914583582719,0.0,0.0,0.4,0.75,1.0,MANUAL_MODE,True,False,False,,,False,False,0,None,25.0,10.0
1765890098.7013206,23.26107692718506,-0.0633874941756199,0.008771036892126816,0.08452893264703487,0.0,0.0,0.4,0.75,1.0,MANUAL_MODE,True,False,False,,,False,False,0,None,25.0,10.0
1765890098.811107,23.37086319923401,-0.06291360756722772,0.008419202506054355,0.08510153962302525,0.0,0.0,0.4,0.75,1.0,MANUAL_MODE,True,False,False,,,False,False,0,None,25.0,10.0
1765890098.9111094,23.470865726470947,-0.06285448426536434,0.008341921429313583,0.0847821829532478,0.0,0.0,0.4,0.75,1.0,MANUAL_MODE,True,False,False,,,False,False,0,None,25.0,10.0
1765890099.0111406,23.570897102355957,-0.06276392879036852,0.00927804770889108,0.08474979684217843,0.0,0.0,0.4,0.75,1.0,MANUAL_MODE,True,False,False,,,False,False,0,None,25.0,10.0
1765890099.111424,23.671180486679077,-0.06274846008226144,0.00943795708924578,0.08472771740087026,0.0,0.0,0.4,0.75,1.0,MANUAL_MODE,True,False,False,,,False,False,0,None,25.0,10.0
1765890099.2213523,23.781108856201172,-0.06328075216472884,0.008188683684973297,0.08607937284154499,0.0,0.0,0.4,0.75,1.0,MANUAL_MODE,True,False,False,,,False,False,0,None,25.0,10.0
1765890099.3311346,23.8908908367157,-0.06290946990577825,0.008292312397000326,0.08330694502110969,0.0,0.0,0.4,0.75,1.0,MANUAL_MODE,True,False,False,,,False,False,0,None,25.0,10.0
1765890099.4412935,24.001050233840942,-0.0629082996599337,0.008292667131445539,0.08275691635273041,0.0,0.0,0.4,0.75,1.0,MANUAL_MODE,True,False,False,,,False,False,0,None,25.0,10.0
1765890099.5511537,24.110910177230835,-0.06347877738632622,0.0074861383887776575,0.08175173820014336,0.0,0.0,0.4,0.75,1.0,MANUAL_MODE,True,False,False,,,False,False,0,None,25.0,10.0
1765890099.661302,24.22105836868286,-0.06347887613614427,0.007485998778477569,0.08171525374821353,0.0,0.0,0.4,0.75,1.0,MANUAL_MODE,True,False,False,,,False,False,0,None,25.0,10.0
1765890099.7613163,24.321072578430176,-0.06330261907892357,0.008208769687188698,0.08173390248864987,0.0,0.0,0.4,0.75,1.0,MANUAL_MODE,True,False,False,,,False,False,0,None,25.0,10.0
1765890099.8711567,24.430912971496582,-0.06301658000552654,0.007926170028254154,0.08006832923343499,0.0,0.0,0.4,0.75,1.0,MANUAL_MODE,True,False,False,,,False,False,0,None,25.0,10.0
1765890099.9813254,24.54108166694641,-0.06301657278297482,0.00792616289106331,0.08004742397665421,0.0,0.0,0.4,0.75,1.0,MANUAL_MODE,True,False,False,,,False,False,0,None,25.0,10.0
1765890100.0814734,24.64123010635376,-0.06317665611086346,0.007770510254435131,0.07840437846550419,0.0,0.0,0.4,0.75,1.0,MANUAL_MODE,True,False,False,,,False,False,0,None,25.0,10.0
1765890100.1911352,24.75089168548584,-0.06270883682121653,0.007557925924883879,0.07841295364966872,0.0,0.0,0.4,0.75,1.0,MANUAL_MODE,True,False,False,,,False,False,0,None,25.0,10.0
1765890100.2911851,24.85094141960144,-0.06270883616291474,0.007557925625742357,0.07843907172925135,0.0,0.0,0.4,0.75,1.0,MANUAL_MODE,True,False,False,,,False,False,0,None,25.0,10.0
1765890100.401258,24.96101427078247,-0.06275814912002128,0.008049170129821193,0.07846046741661628,0.0,0.0,0.4,0.75,1.0,MANUAL_MODE,True,False,False,,,False,False,0,None,25.0,10.0
1765890100.5013285,25.061084747314453,-0.06284573478584618,0.007828421370284052,0.07834633591785867,0.0,0.0,0.4,0.75,1.0,MANUAL_MODE,True,False,False,,,False,False,0,None,25.0,10.0
1765890100.6015303,25.1612868309021,-0.06269863409176568,0.007672842008294212,0.07737274339869948,0.0,0.0,0.38689046874999994,0.75,1.0,MANUAL_MODE,True,False,False,,,False,False,0,None,25.0,10.0
1765890100.711165,25.27092146873474,-0.06257426618972407,0.007661007096299024,0.07558361124314938,0.0,0.0,0.2993684696191893,0.75,1.0,MANUAL_MODE,True,False,False,,,False,False,0,None,25.0,10.0
1765890100.8212543,25.38101053237915,-0.06300616336270544,0.007618870581291949,0.07405051349229108,0.0,0.0,0.24383748955776471,0.75,1.0,MANUAL_MODE,True,False,False,,,False,False,0,None,25.0,10.0
1765890100.9212718,25.481028079986572,-0.06301555677393901,0.007617954146566397,0.0734572548062955,0.0,0.0,0.19860715922910904,0.75,1.0,MANUAL_MODE,True,False,False,,,False,False,0,None,25.0,10.0
1765890101.0212889,25.581045389175415,-0.06407969320944205,0.007130155346564181,0.07148761309088236,0.0,0.0,0.17028081314405732,0.75,1.0,MANUAL_MODE,True,False,False,,,False,False,0,None,25.0,10.0
1765890101.1213386,25.681094884872437,-0.06384405599975536,0.007537069032738849,0.07009504267275712,0.0,0.0,0.14599451216938614,0.75,1.0,MANUAL_MODE,True,False,False,,,False,False,0,None,25.0,10.0
1765890101.2215724,25.781328678131104,-0.06383842773016114,0.007546149809271776,0.06988968194349798,0.0,0.0,0.11296777049628275,0.75,1.0,MANUAL_MODE,True,False,False,,,False,False,0,None,25.0,10.0
1765890101.3311255,25.890881776809692,-0.06472390239721319,0.007495095000417692,0.07341802869794467,0.0,0.0,0.0968557422292504,0.75,1.0,MANUAL_MODE,True,False,False,,,False,False,0,None,25.0,10.0
1765890101.431155,25.99091124534607,-0.06472666091048745,0.00749493594970042,0.07404238553375997,0.0,0.0,0.07888960739411338,0.75,1.0,MANUAL_MODE,True,False,False,,,False,False,0,None,25.0,10.0
1765890101.5312777,26.091034412384033,-0.0648482483785453,0.007493874184577662,0.07157408473131532,0.0,0.0,0.06763797713952795,0.75,1.0,MANUAL_MODE,True,False,False,,,False,False,0,None,25.0,10.0
1765890101.6418784,26.201634645462036,-0.06519201562324425,0.007571987690068702,0.06991732626370606,0.0,0.0,0.05233697736162749,0.75,1.0,MANUAL_MODE,True,False,False,,,False,False,0,None,25.0,10.0
1765890101.7513168,26.311073064804077,-0.06519242271473846,0.007572080471900663,0.06982315409748363,0.0,0.0,0.04487241596542537,0.75,1.0,MANUAL_MODE,True,False,False,,,False,False,0,None,25.0,10.0
1765890101.861521,26.42127752304077,-0.0655864639443264,0.006851145678734374,0.07187054830305328,0.0,0.0,0.0347214200936168,0.75,1.0,MANUAL_MODE,True,False,False,,,False,False,0,None,25.0,10.0
1765890101.961645,26.52140164375305,-0.06558648999490285,0.006851098016800694,0.07195689985567011,0.0,0.0,0.029769277552764692,0.75,1.0,MANUAL_MODE,True,False,False,,,False,False,0,None,25.0,10.0
1765890102.0712621,26.63101863861084,-0.06585579326247161,0.007128635008971521,0.07335221980075346,0.0,0.0,0.023034899493475966,0.75,1.0,MANUAL_MODE,True,False,False,,,False,False,0,None,25.0,10.0
1765890102.1815252,26.741281747817993,-0.06556752759056263,0.006750555138480682,0.07387638557271714,0.0,0.0,0.019749546953218955,0.75,1.0,MANUAL_MODE,True,False,False,,,False,False,0,None,25.0,10.0
1765890102.2911913,26.850947618484497,-0.06556752652855945,0.0067505537455987705,0.07386257290011677,0.0,0.0,0.016086129428065293,0.75,1.0,MANUAL_MODE,True,False,False,,,False,False,0,None,25.0,10.0
1765890102.4012725,26.961028814315796,-0.0657372810353047,0.00647784085617912,0.07784617109962433,0.0,0.0,0.013102252957468105,0.75,1.0,MANUAL_MODE,True,False,False,,,False,False,0,None,25.0,10.0
1765890102.5016665,27.06142282485962,-0.06544168228985851,0.006543103486528341,0.07729988566134782,0.0,0.0,0.010671866922938754,0.75,1.0,MANUAL_MODE,True,False,False,,,False,False,0,None,25.0,10.0
1765890102.6111658,27.17092204093933,-0.0654247420464583,0.006587954435172422,0.07749080154629517,0.0,0.0,0.0,0.75,1.0,MANUAL_MODE,True,False,False,,,False,False,0,None,25.0,10.0
1765890102.72124,27.280996322631836,-0.06545305545485783,0.006588725936372688,0.07959212852381814,0.0,0.0,0.0,0.75,1.0,MANUAL_MODE,True,False,False,,,False,False,0,None,25.0,10.0
1765890102.821282,27.381038427352905,-0.06511293880178595,0.006676807499204874,0.08012723350657325,0.0,0.0,0.0,0.75,1.0,MANUAL_MODE,True,False,False,,,False,False,0,None,25.0,10.0
1765890102.9311304,27.490886688232422,-0.06527861148777447,0.007050004475047455,0.08115693378851407,0.0,0.0,0.0,0.75,1.0,MANUAL_MODE,True,False,False,,,False,False,0,None,25.0,10.0
1765890103.0311327,27.59088897705078,-0.06527913629172531,0.007051164843891363,0.08128226638922786,0.0,0.0,0.0,0.75,1.0,MANUAL_MODE,True,False,False,,,False,False,0,None,25.0,10.0
1765890103.1312177,27.69097399711609,-0.06593682421617164,0.006745434418057172,0.0822790598757921,0.0,0.0,0.0,0.75,1.0,MANUAL_MODE,True,False,False,,,False,False,0,None,25.0,10.0
1765890103.2413151,27.801071405410767,-0.06594221545966947,0.00674292826413041,0.08251349299295985,0.0,0.0,0.0,0.75,1.0,MANUAL_MODE,True,False,False,,,False,False,0,None,25.0,10.0
1765890103.341456,27.901212215423584,-0.06648046409468115,0.0076421437227292156,0.08399313825968324,0.0,0.0,0.0,0.75,1.0,MANUAL_MODE,True,False,False,,,False,False,0,None,25.0,10.0
1765890103.4511025,28.01085877418518,-0.06583894599265554,0.007722700486392947,0.08414115124674737,0.0,0.0,0.0,0.75,1.0,MANUAL_MODE,True,False,False,,,False,False,0,None,25.0,10.0
1765890103.551142,28.11089825630188,-0.06583865489707522,0.007722736519605913,0.08411001708123589,0.0,0.0,0.0,0.75,1.0,MANUAL_MODE,True,False,False,,,False,False,0,None,25.0,10.0
1765890103.6512368,28.21099352836609,-0.0663018602900126,0.007205471512888378,0.08490077937417428,0.0,0.0,0.0,0.75,1.0,MANUAL_MODE,True,False,False,,,False,False,0,None,25.0,10.0
1765890103.7612615,28.32101798057556,-0.06630207026528546,0.0072052370318945345,0.08494285674571422,0.0,0.0,0.0,0.75,1.0,MANUAL_MODE,True,False,False,,,False,False,0,None,25.0,10.0
1765890103.87128,28.431036710739136,-0.06640041580935913,0.007685628340579838,0.08761169124530088,0.0,0.0,0.0,0.75,1.0,MANUAL_MODE,True,False,False,,,False,False,0,None,25.0,10.0
1765890103.9812486,28.54100489616394,-0.06620030127126747,0.007775666528661357,0.08939344464068988,0.0,0.0,0.0,0.75,1.0,MANUAL_MODE,True,False,False,,,False,False,0,None,25.0,10.0
1765890104.0812912,28.641047477722168,-0.06620030098966907,0.007775666655344242,0.0893605391549741,0.0,0.0,0.0,0.75,1.0,MANUAL_MODE,True,False,False,,,False,False,0,None,25.0,10.0
1765890104.1813834,28.74113965034485,-0.06694090103922366,0.007889272026169987,0.09226958180777967,0.0,0.0,0.0,0.75,1.0,MANUAL_MODE,True,False,False,,,False,False,0,None,25.0,10.0
1765890104.2818701,28.841626405715942,-0.0669409037676137,0.007889272444695158,0.09225649945509762,0.0,0.0,0.0,0.75,1.0,MANUAL_MODE,True,False,False,,,False,False,0,None,25.0,10.0
1765890104.3912122,28.950968742370605,-0.06653827255734972,0.007992732376107496,0.08897013966197331,0.0,0.0,0.0,0.75,1.0,MANUAL_MODE,True,False,False,,,False,False,0,None,25.0,10.0
1765890104.5013263,29.06108260154724,-0.06656807713876062,0.007753603642608924,0.08814350397589976,0.0,0.0,0.0,0.75,1.0,MANUAL_MODE,True,False,False,,,False,False,0,None,25.0,10.0
1765890104.6015766,29.161333084106445,-0.06641660208132051,0.008358949774622133,0.08946718991018887,0.0,0.0,0.0,0.75,1.0,MANUAL_MODE,True,False,False,,,False,False,0,None,25.0,10.0
1765890104.701684,29.26144027709961,-0.06639072706530337,0.008462355191751704,0.09104678052162551,0.0,0.0,0.0,0.75,1.0,MANUAL_MODE,True,False,False,,,False,False,0,None,25.0,10.0
1765890104.8112314,29.370988130569458,-0.06657755299681471,0.007618940263863576,0.08910703866310499,0.0,0.0,0.0,0.75,1.0,MANUAL_MODE,True,False,False,,,False,False,0,None,25.0,10.0
1765890104.921347,29.48110318183899,-0.0668412468881975,0.007378158168508587,0.08986150762228817,0.0,0.0,0.0,0.75,1.0,MANUAL_MODE,True,False,False,,,False,False,0,None,25.0,10.0
1765890105.0311503,29.590906620025635,-0.0668431468547388,0.007377365402675891,0.09066894522164581,0.0,0.0,0.0,0.75,1.0,MANUAL_MODE,True,False,False,,,False,False,0,None,25.0,10.0
1765890105.1412373,29.70099377632141,-0.06726883758636516,0.00741958761147601,0.0946314780307862,0.0,0.0,0.0,0.75,1.0,MANUAL_MODE,True,False,False,,,False,False,0,None,25.0,10.0
1765890105.2414284,29.80118489265442,-0.06715749329380524,0.0079670113053823,0.09333130859209238,0.0,0.0,0.0,0.75,1.0,MANUAL_MODE,True,False,False,,,False,False,0,None,25.0,10.0
1765890105.3511505,29.91090679168701,-0.06715744273304676,0.007967259448889529,0.09315945395773095,0.0,0.0,0.0,0.75,1.0,MANUAL_MODE,True,False,False,,,False,False,0,None,25.0,10.0
1765890105.4614015,30.02115774154663,-0.06709736795179123,0.007522244678058711,0.09581692471229619,0.0,0.0,0.0,0.75,1.0,MANUAL_MODE,True,False,False,,,False,False,0,None,25.0,10.0
1765890105.561428,30.12118434906006,-0.06709736398016958,0.007522215257555363,0.09589304521496267,0.0,0.0,0.0,0.75,1.0,MANUAL_MODE,True,False,False,,,False,False,0,None,25.0,10.0
1765890105.6711175,30.230873823165894,-0.06722221384647006,0.0070947391207177675,0.09524452284815155,0.0,0.0,0.0,0.75,1.0,MANUAL_MODE,True,False,False,,,False,False,0,None,25.0,10.0
1765890105.7711291,30.330885410308838,-0.06646909950409571,0.00722745671955494,0.09521142255202975,0.0,0.0,0.0,0.75,1.0,MANUAL_MODE,True,False,False,,,False,False,0,None,25.0,10.0
1765890105.8711329,30.430888891220093,-0.06646909224032438,0.007227457999648889,0.09519787953430914,0.0,0.0,0.0,0.75,1.0,MANUAL_MODE,True,False,False,,,False,False,0,None,25.0,10.0
1765890105.981317,30.541073322296143,-0.06719964551251487,0.00702057832555742,0.09928104006405736,0.0,0.0,0.0,0.75,1.0,MANUAL_MODE,True,False,False,,,False,False,0,None,25.0,10.0
1765890106.0813284,30.641084671020508,-0.06719964820389233,0.007020577563407263,0.09929686105210056,0.0,0.0,0.0,0.75,1.0,MANUAL_MODE,True,False,False,,,False,False,0,None,25.0,10.0
1765890106.191126,30.750882387161255,-0.06668705391493195,0.007548959866999337,0.10032286538926716,0.0,0.0,0.0,0.75,1.0,MANUAL_MODE,True,False,False,,,False,False,0,None,25.0,10.0
1765890106.2911882,30.85094451904297,-0.06754104672058273,0.007717274451625562,0.10291401249351662,0.0,0.0,0.0,0.75,1.0,MANUAL_MODE,True,False,False,,,False,False,0,None,25.0,10.0
1765890106.4013007,30.96105694770813,-0.0673511172678244,0.007581469777936144,0.10275000389488298,0.0,0.0,0.0,0.75,1.0,MANUAL_MODE,True,False,False,,,False,False,0,None,25.0,10.0
1765890106.501536,31.06129264831543,-0.06723373373094772,0.007497537772498425,0.10232799902562295,0.0,0.0,0.0,0.75,1.0,MANUAL_MODE,True,False,False,,,False,False,0,None,25.0,10.0
1765890106.611121,31.17087721824646,-0.06708091202719609,0.007461010364943476,0.10201420756194413,0.0,0.0,0.0,0.75,1.0,MANUAL_MODE,True,False,False,,,False,False,0,None,25.0,10.0
1765890106.711152,31.27090859413147,-0.06794064542944418,0.007378812171074936,0.0998527148774393,0.0,0.0,0.0,0.75,1.0,MANUAL_MODE,True,False,False,,,False,False,0,None,25.0,10.0
1765890106.8112705,31.37102699279785,-0.06809196460492295,0.007365836900393028,0.09769068660740121,0.0,0.0,0.0,0.75,1.0,MANUAL_MODE,True,False,False,,,False,False,0,None,25.0,10.0
1765890106.9212697,31.48102617263794,-0.06801101546124068,0.007602047864406782,0.10062102756106839,0.0,0.0,0.0,0.75,1.0,MANUAL_MODE,True,False,False,,,False,False,0,None,25.0,10.0
1765890107.0213146,31.581071138381958,-0.06800925488172728,0.007607185260055569,0.10179875200906885,0.0,0.0,0.0,0.75,1.0,MANUAL_MODE,True,False,False,,,False,False,0,None,25.0,10.0
1765890107.1311052,31.690861701965332,-0.06842071213614277,0.00759926564417494,0.09944738665536512,0.0,0.0,0.0,0.75,1.0,MANUAL_MODE,True,False,False,,,False,False,0,None,25.0,10.0
1765890107.231166,31.79092240333557,-0.06815596775261516,0.007233657321168415,0.10042389522841777,0.0,0.0,0.0,0.75,1.0,MANUAL_MODE,True,False,False,,,False,False,0,None,25.0,10.0
1765890107.3313687,31.891124963760376,-0.06815376992711217,0.007230660865638692,0.10084290619771696,0.0,0.0,0.0,0.75,1.0,MANUAL_MODE,True,False,False,,,False,False,0,None,25.0,10.0
1765890107.441396,32.0011522769928,-0.06834777776686098,0.007751968822425021,0.10289748583672775,0.0,0.0,0.0,0.75,1.0,MANUAL_MODE,True,False,False,,,False,False,0,None,25.0,10.0
1765890107.5415788,32.10133504867554,-0.06834800818017449,0.00775258795355642,0.10312790417713025,0.0,0.0,0.0,0.75,1.0,MANUAL_MODE,True,False,False,,,False,False,0,None,25.0,10.0
1765890107.6512184,32.21097469329834,-0.06889741025014108,0.00735179403520872,0.10512330823826588,0.0,0.0,0.0,0.75,1.0,MANUAL_MODE,True,False,False,,,False,False,0,None,25.0,10.0
1765890107.761584,32.321340799331665,-0.06922485944926392,0.007137381687205401,0.1094946783359747,0.0,0.0,0.0,0.75,1.0,MANUAL_MODE,True,False,False,,,False,False,0,None,25.0,10.0
1765890107.8711445,32.430901288986206,-0.06922488108091669,0.00713736752411953,0.10959700036678743,0.0,0.0,0.0,0.75,1.0,MANUAL_MODE,True,False,False,,,False,False,0,None,25.0,10.0
1765890107.9812424,32.540998697280884,-0.06793824322692571,0.007346722139595044,0.1029422930591668,0.0,0.0,0.0,0.75,1.0,MANUAL_MODE,True,False,False,,,False,False,0,None,25.0,10.0
1765890108.0812466,32.641003131866455,-0.06910877020483189,0.007338415659877475,0.10785620588719347,0.0,0.0,0.0,0.75,1.0,MANUAL_MODE,True,False,False,,,False,False,0,None,25.0,10.0
1765890108.1812503,32.74100661277771,-0.06910877451709896,0.007338415629273758,0.10790832843473286,0.0,0.0,0.0,0.75,1.0,MANUAL_MODE,True,False,False,,,False,False,0,None,25.0,10.0
1765890108.2911336,32.850889921188354,-0.06820533292991715,0.00700333916463679,0.1097683503095821,0.0,0.0,0.0,0.75,1.0,MANUAL_MODE,True,False,False,,,False,False,0,None,25.0,10.0
1765890108.40134,32.96109652519226,-0.06864602833734768,0.007377753883439494,0.11029490364562022,0.0,0.0,0.0,0.75,1.0,MANUAL_MODE,True,False,False,,,False,False,0,None,25.0,10.0
1765890108.501445,33.06120157241821,-0.068697671392938,0.007335999994488703,0.112472119911601,0.0,0.0,0.0,0.75,1.0,MANUAL_MODE,True,False,False,,,False,False,0,None,25.0,10.0
1765890108.611143,33.170899391174316,-0.06856125766890783,0.007167181031063266,0.11415640478653977,0.0,0.0,0.0,0.75,1.0,MANUAL_MODE,True,False,False,,,False,False,0,None,25.0,10.0
1765890108.72124,33.280996322631836,-0.06864226911043467,0.0076931015561868266,0.11500496753898748,0.0,0.0,0.0,0.75,1.0,MANUAL_MODE,True,False,False,,,False,False,0,None,25.0,10.0
1765890108.8212519,33.38100814819336,-0.06864293318277326,0.0076974126654416695,0.11519477123399202,0.0,0.0,0.0,0.75,1.0,MANUAL_MODE,True,False,False,,,False,False,0,None,25.0,10.0
1765890108.9311168,33.49087309837341,-0.06911497607811799,0.00735097158329169,0.11732020133580967,0.0,0.0,0.0,0.75,1.0,MANUAL_MODE,True,False,False,,,False,False,0,None,25.0,10.0
1765890109.031161,33.590917348861694,-0.06924454464067757,0.007297371852078641,0.11404569457803415,0.0,0.0,0.0,0.75,1.0,MANUAL_MODE,True,False,False,,,False,False,0,None,25.0,10.0
1765890109.1413395,33.701096057891846,-0.06924559469505856,0.007296941327220293,0.11307703805031277,0.0,0.0,0.0,0.75,1.0,MANUAL_MODE,True,False,False,,,False,False,0,None,25.0,10.0
1765890109.2511616,33.81091785430908,-0.06940192574748248,0.007213565438304053,0.11559569853046447,0.0,0.0,0.0,0.75,1.0,MANUAL_MODE,True,False,False,,,False,False,0,None,25.0,10.0
1765890109.3612943,33.92105054855347,-0.06940199661378901,0.007213527643245363,0.11579522326942282,0.0,0.0,0.0,0.75,1.0,MANUAL_MODE,True,False,False,,,False,False,0,None,25.0,10.0
1765890109.4711516,34.03090786933899,-0.06926395652218023,0.006823368536963925,0.11498630944886745,0.0,0.0,0.0,0.75,1.0,MANUAL_MODE,True,False,False,,,False,False,0,None,25.0,10.0
1765890109.581274,34.14103031158447,-0.06970052169234393,0.006997015604548014,0.11732643660773334,0.0,0.0,0.0,0.75,1.0,MANUAL_MODE,True,False,False,,,False,False,0,None,25.0,10.0
1765890109.6911435,34.25090026855469,-0.06970052230666715,0.006997015848903974,0.11732441255375736,0.0,0.0,0.0,0.75,1.0,MANUAL_MODE,True,False,False,,,False,False,0,None,25.0,10.0
1765890109.8012755,34.36103177070618,-0.0698702394648645,0.007288287967474925,0.11970297000599484,0.0,0.0,0.0,0.75,1.0,MANUAL_MODE,True,False,False,,,False,False,0,None,25.0,10.0
1765890109.9012828,34.4610390663147,-0.07029597609390545,0.00718438804358935,0.11727148753229688,0.0,0.0,0.0,0.75,1.0,MANUAL_MODE,True,False,False,,,False,False,0,None,25.0,10.0
1765890110.0111482,34.57090449333191,-0.0709174174005381,0.007315714083107717,0.11685104279937786,0.0,0.0,0.0,0.75,1.0,MANUAL_MODE,True,False,False,,,False,False,0,None,25.0,10.0
1765890110.1212723,34.68102836608887,-0.07094980103072979,0.007324511993870347,0.11847943891269885,0.0,0.0,0.0,0.75,1.0,MANUAL_MODE,True,False,False,,,False,False,0,None,25.0,10.0
1765890110.2311196,34.79087591171265,-0.07074887731283191,0.006961026253826113,0.12061355472320656,0.0,0.0,0.0,0.75,1.0,MANUAL_MODE,True,False,False,,,False,False,0,None,25.0,10.0
1765890110.3311226,34.89087891578674,-0.07167672680016217,0.006904889388229158,0.12211083513819343,0.0,0.0,0.0,0.75,1.0,MANUAL_MODE,True,False,False,,,False,False,0,None,25.0,10.0
1765890110.431132,34.990888357162476,-0.07167961927305788,0.006904718032469379,0.12227393610572257,0.0,0.0,0.0,0.75,1.0,MANUAL_MODE,True,False,False,,,False,False,0,None,25.0,10.0
1765890110.5412626,35.10101914405823,-0.07107636728481687,0.006978998292093888,0.12648903144087242,0.0,0.0,0.0,0.75,1.0,MANUAL_MODE,True,False,False,,,False,False,0,None,25.0,10.0
1765890110.641403,35.20115923881531,-0.07107609382525681,0.006979031964004608,0.12678946820351733,0.0,0.0,0.0,0.75,1.0,MANUAL_MODE,True,False,False,,,False,False,0,None,25.0,10.0
1765890110.7414734,35.30122995376587,-0.0718463764676758,0.006855381938934065,0.12231634199491914,0.0,0.0,0.0,0.75,1.0,MANUAL_MODE,True,False,False,,,False,False,0,None,25.0,10.0
1765890110.8511395,35.41089582443237,-0.07146907658999546,0.006550311807916255,0.12654879721822443,0.0,0.0,0.0,0.75,1.0,MANUAL_MODE,True,False,False,,,False,False,0,None,25.0,10.0
1765890110.9511418,35.51089811325073,-0.07146890539834981,0.006550173542275538,0.12691297161239845,0.0,0.0,0.0,0.75,1.0,MANUAL_MODE,True,False,False,,,False,False,0,None,25.0,10.0
1765890111.0612473,35.62100386619568,-0.07299520419809245,0.006562176610066847,0.13477700937976334,0.0,0.0,0.0,0.75,1.0,MANUAL_MODE,True,False,False,,,False,False,0,None,25.0,10.0
1765890111.1612809,35.72103714942932,-0.07299530510368456,0.006562177403605223,0.13501317475891916,0.0,0.0,0.0,0.75,1.0,MANUAL_MODE,True,False,False,,,False,False,0,None,25.0,10.0
1765890111.2613964,35.821152687072754,-0.07250660043882139,0.00702623397329813,0.13377138461925675,0.0,0.0,0.0,0.75,1.0,MANUAL_MODE,True,False,False,,,False,False,0,None,25.0,10.0
1765890111.3710737,35.930830001831055,-0.07233984921400263,0.007099795052662792,0.13187310450220746,0.0,0.0,0.0,0.75,1.0,MANUAL_MODE,True,False,False,,,False,False,0,None,25.0,10.0
1765890111.481292,36.04104828834534,-0.07233984500413532,0.007099796909403454,0.1317934280317683,0.0,0.0,0.0,0.75,1.0,MANUAL_MODE,True,False,False,,,False,False,0,None,25.0,10.0
1765890111.5813954,36.141151666641235,-0.07290070225418899,0.007240156603241824,0.1305517107849159,0.0,0.0,0.0,0.75,1.0,MANUAL_MODE,True,False,False,,,False,False,0,None,25.0,10.0
1765890111.6911669,36.25092339515686,-0.07290070432040252,0.007240157120330797,0.13053678230754695,0.0,0.0,0.0,0.75,1.0,MANUAL_MODE,True,False,False,,,False,False,0,None,25.0,10.0
1765890111.801272,36.36102819442749,-0.07231777216866235,0.007020915510711641,0.13339883011988451,0.0,0.0,0.0,0.75,1.0,MANUAL_MODE,True,False,False,,,False,False,0,None,25.0,10.0
