timestamp,time,x,y,th,v,u,delta,v_ref,yolo_gain,state,gps_valid,platoon_enabled,platoon_is_leader,platoon_position,platoon_leader_id,platoon_setup_complete,v2v_active,v2v_peers,v2v_protocol,v2v_local_rate,v2v_fleet_rate
1765889789.8916252,2.015761613845825,0.0,0.0,0.0,0.0,0.0,0.0,0.75,1.0,INITIALIZING,False,False,False,,,False,False,0,None,25.0,10.0
1765889790.1931648,2.317301034927368,-0.007108612357295451,-1.0888378555556715e-05,-0.18595628152252175,0.0,0.0,0.0,0.75,1.0,WAITING_FOR_START,True,False,False,,,False,False,0,None,25.0,10.0
1765889790.2970257,2.4211623668670654,-0.0060023066193583075,0.0010179486414226464,-0.19067115015824143,0.0,0.0,0.0,0.75,1.0,WAITING_FOR_START,True,False,False,,,False,False,0,None,25.0,10.0
1765889790.406796,2.5309321880340576,-0.005949802652872636,0.0008860473313674034,-0.1914375338223504,0.0,0.0,0.0,0.75,1.0,WAITING_FOR_START,True,False,False,,,False,False,0,None,25.0,10.0
1765889790.5068018,2.6309385299682617,-0.005914258787383898,0.0008896522080858111,-0.18739094116904553,0.0,0.0,0.0,0.75,1.0,WAITING_FOR_START,True,False,False,,,False,False,0,None,25.0,10.0
1765889790.6069753,2.731111764907837,-0.005817774129626931,0.0011628873742348107,-0.18861533020714383,0.0,0.0,0.0,0.75,1.0,WAITING_FOR_START,True,False,False,,,False,False,0,None,25.0,10.0
1765889790.7169504,2.8410868644714355,-0.0058012925870021895,0.0012095615087749862,-0.1901234654509878,0.0,0.0,0.0,0.75,1.0,WAITING_FOR_START,True,False,False,,,False,False,0,None,25.0,10.0
1765889790.826809,2.9509449005126953,-0.006059258810410575,0.001266297638945255,-0.18503147210844162,0.0,0.0,0.0,0.75,1.0,WAITING_FOR_START,True,False,False,,,False,False,0,None,25.0,10.0
1765889790.9370134,3.0611495971679688,-0.006459895213373784,0.0013706548115868962,-0.18122857713128937,0.0,0.0,0.0,0.75,1.0,WAITING_FOR_START,True,False,False,,,False,False,0,None,25.0,10.0
1765889791.0468535,3.170989990234375,-0.006460368517891849,0.0013707781990538943,-0.18099554427133668,0.0,0.0,0.0,0.75,1.0,WAITING_FOR_START,True,False,False,,,False,False,0,None,25.0,10.0
1765889791.1468568,3.2709927558898926,-0.006541201337803339,0.0011664036351217307,-0.18995389233126403,0.0,0.0,0.0,0.75,1.0,WAITING_FOR_START,True,False,False,,,False,False,0,None,25.0,10.0
1765889791.2569582,3.381094455718994,-0.0065412379800653874,0.0011663109902486988,-0.19068056470311134,0.0,0.0,0.0,0.75,1.0,WAITING_FOR_START,True,False,False,,,False,False,0,None,25.0,10.0
1765889791.3667977,3.490933656692505,-0.006044021050094605,0.0010426376284494087,-0.18652482250545432,0.0,0.0,0.0,0.75,1.0,WAITING_FOR_START,True,False,False,,,False,False,0,None,25.0,10.0
1765889791.4769247,3.6010608673095703,-0.006387743359918102,0.0016970248445851799,-0.188833454530144,0.0,0.0,0.0,0.75,1.0,WAITING_FOR_START,True,False,False,,,False,False,0,None,25.0,10.0
1765889791.5769405,3.7010767459869385,-0.006387744626245395,0.0016970272553761439,-0.18885477180510435,0.0,0.0,0.0,0.75,1.0,WAITING_FOR_START,True,False,False,,,False,False,0,None,25.0,10.0
1765889791.6769876,3.801123857498169,-0.006550870676710275,0.0024550916739393192,-0.18288707333557497,0.0,0.0,0.0,0.75,1.0,WAITING_FOR_START,True,False,False,,,False,False,0,None,25.0,10.0
1765889791.777105,3.9012420177459717,-0.006179102448460161,0.0012560505288259324,-0.1818386868780415,0.0,0.0,0.0,0.75,1.0,WAITING_FOR_START,True,False,False,,,False,False,0,None,25.0,10.0
1765889791.886772,4.010908126831055,-0.006179101078853891,0.0012560461115165835,-0.18188197648493798,0.0,0.0,0.0,0.75,1.0,WAITING_FOR_START,True,False,False,,,False,False,0,None,25.0,10.0
1765889791.9867995,4.110935688018799,-0.006798463753902758,0.0019626993369172706,-0.1791620985592317,0.0,0.0,0.0,0.75,1.0,WAITING_FOR_START,True,False,False,,,False,False,0,None,25.0,10.0
1765889792.0868042,4.2109410762786865,-0.006798464625451099,0.0019627003312982223,-0.17918963343105077,0.0,0.0,0.0,0.75,1.0,WAITING_FOR_START,True,False,False,,,False,False,0,None,25.0,10.0
1765889792.1969697,4.321106195449829,-0.008282907036691899,0.0015564252745928016,-0.18207832100578614,0.0,0.0,0.0,0.75,1.0,WAITING_FOR_START,True,False,False,,,False,False,0,None,25.0,10.0
1765889792.3068578,4.430994033813477,-0.008677435401298842,0.001334021807127772,-0.176443531601997,0.0,0.0,0.0,0.75,1.0,WAITING_FOR_START,True,False,False,,,False,False,0,None,25.0,10.0
1765889792.416957,4.541093349456787,-0.00827373081166829,0.001431884032791248,-0.17974159070280393,0.0,0.0,0.0,0.75,1.0,WAITING_FOR_START,True,False,False,,,False,False,0,None,25.0,10.0
1765889792.5170007,4.641136884689331,-0.008264950564884634,0.0014340124572449257,-0.18107939210888802,0.0,0.0,0.0,0.75,1.0,WAITING_FOR_START,True,False,False,,,False,False,0,None,25.0,10.0
1765889792.6267946,4.7509307861328125,-0.008522505311357847,0.002095709089895582,-0.17796153533988956,0.0,0.0,0.0,0.75,1.0,WAITING_FOR_START,True,False,False,,,False,False,0,None,25.0,10.0
1765889792.7370298,4.86116623878479,-0.00849105107176152,0.0021186110655119113,-0.17422748701053337,0.0,0.0,0.0,0.75,1.0,WAITING_FOR_START,True,False,False,,,False,False,0,None,25.0,10.0
1765889792.8468199,4.970956087112427,-0.00849101120788308,0.0021186318235295546,-0.17392590840825406,0.0,0.0,0.0,0.75,1.0,WAITING_FOR_START,True,False,False,,,False,False,0,None,25.0,10.0
1765889792.9569497,5.081086158752441,-0.009174370307569417,0.0020865054916019738,-0.17040434553859996,0.0,0.0,0.0,0.75,1.0,WAITING_FOR_START,True,False,False,,,False,False,0,None,25.0,10.0
1765889793.0569646,5.181100845336914,-0.009174415485325294,0.0020865033676885263,-0.17032375855936976,0.0,0.0,0.0,0.75,1.0,WAITING_FOR_START,True,False,False,,,False,False,0,None,25.0,10.0
1765889793.1667936,5.290929794311523,-0.009752690360424726,0.0018077198952598417,-0.17510077851617467,0.0,0.0,0.0,0.75,1.0,WAITING_FOR_START,True,False,False,,,False,False,0,None,25.0,10.0
1765889793.2668786,5.39101505279541,-0.009248824271253658,0.002023498580289322,-0.17125179006763425,0.0,0.0,0.0,0.75,1.0,WAITING_FOR_START,True,False,False,,,False,False,0,None,25.0,10.0
1765889793.3669004,5.491036653518677,-0.00924881154765106,0.002023504029141879,-0.17115848165093084,0.0,0.0,0.0,0.75,1.0,WAITING_FOR_START,True,False,False,,,False,False,0,None,25.0,10.0
1765889793.476942,5.601078510284424,-0.010254822823994245,0.0018886909273182425,-0.16981440478081034,0.0,0.0,0.0,0.75,1.0,WAITING_FOR_START,True,False,False,,,False,False,0,None,25.0,10.0
1765889793.57698,5.701116561889648,-0.010254826530166228,0.001888690430663232,-0.16982721067837403,0.0,0.0,0.0,0.75,1.0,WAITING_FOR_START,True,False,False,,,False,False,0,None,25.0,10.0
1765889793.6770873,5.801223516464233,-0.009687445641801346,0.0023996790017036082,-0.1750611228760235,0.0,0.0,0.0,0.75,1.0,WAITING_FOR_START,True,False,False,,,False,False,0,None,25.0,10.0
1765889793.7867773,5.910913944244385,-0.009314213260777667,0.0024022980241758486,-0.18139149329751447,0.0,0.0,0.0,0.75,1.0,WAITING_FOR_START,True,False,False,,,False,False,0,None,25.0,10.0
1765889793.8868136,6.010950565338135,-0.00931421273557891,0.002402298027858995,-0.18136593520341293,0.0,0.0,0.0,0.75,1.0,WAITING_FOR_START,True,False,False,,,False,False,0,None,25.0,10.0
1765889793.997031,6.121167182922363,-0.009355677555848794,0.0016754549837885702,-0.1751533667973071,0.0,0.0,0.0,0.75,1.0,WAITING_FOR_START,True,False,False,,,False,False,0,None,25.0,10.0
1765889794.1068304,6.230966567993164,-0.009383154537861826,0.001714451605205734,-0.174470906364931,0.0,0.0,0.0,0.75,1.0,WAITING_FOR_START,True,False,False,,,False,False,0,None,25.0,10.0
1765889794.2068467,6.3309831619262695,-0.009320916332029286,0.002294235630506534,-0.17425506668084267,0.0,0.0,0.0,0.75,1.0,WAITING_FOR_START,True,False,False,,,False,False,0,None,25.0,10.0
1765889794.306852,6.430988311767578,-0.009310284781984549,0.002393274511108357,-0.1739937772782092,0.0,0.0,0.0,0.75,1.0,WAITING_FOR_START,True,False,False,,,False,False,0,None,25.0,10.0
1765889794.416958,6.541094541549683,-0.00892570432559419,0.0020792380760427894,-0.17375229734969366,0.0,0.0,0.0,0.75,1.0,WAITING_FOR_START,True,False,False,,,False,False,0,None,25.0,10.0
1765889794.5171273,6.641263484954834,-0.008762419086301678,0.0016180563739955714,-0.17546048797194835,0.0,0.0,0.0,0.75,1.0,WAITING_FOR_START,True,False,False,,,False,False,0,None,25.0,10.0
1765889794.6268184,6.750954627990723,-0.008759049677049213,0.0016081745895067294,-0.17618326141093021,0.0,0.0,0.0,0.75,1.0,WAITING_FOR_START,True,False,False,,,False,False,0,None,25.0,10.0
1765889794.736955,6.861091136932373,-0.009131971661760913,0.0019749762200403677,-0.17230946675913295,0.0,0.0,0.0,0.75,1.0,WAITING_FOR_START,True,False,False,,,False,False,0,None,25.0,10.0
1765889794.8467953,6.970931768417358,-0.009132414562514153,0.0019754118519572576,-0.1718590221319083,0.0,0.0,0.0,0.75,1.0,WAITING_FOR_START,True,False,False,,,False,False,0,None,25.0,10.0
1765889794.9468064,7.0709428787231445,-0.0098979900632641,0.0014894992966787023,-0.16882431143218568,0.0,0.0,0.0,0.75,1.0,WAITING_FOR_START,True,False,False,,,False,False,0,None,25.0,10.0
1765889795.046952,7.171088218688965,-0.010243462844878587,0.0017904191687869416,-0.1686130735227671,0.0,0.0,0.0,0.75,1.0,WAITING_FOR_START,True,False,False,,,False,False,0,None,25.0,10.0
1765889795.1570475,7.281188726425171,-0.010243619293742894,0.0017905556782691313,-0.16866642370041873,0.0,0.0,0.0,0.75,1.0,WAITING_FOR_START,True,False,False,,,False,False,0,None,25.0,10.0
1765889795.266785,7.390921354293823,-0.010498241091976784,0.0013062975941236466,-0.16996593539171911,0.0,0.0,0.0,0.75,1.0,WAITING_FOR_START,True,False,False,,,False,False,0,None,25.0,10.0
1765889795.3667936,7.490930080413818,-0.010498247521492,0.0013062853660082943,-0.17001738513473086,0.0,0.0,0.0,0.75,1.0,WAITING_FOR_START,True,False,False,,,False,False,0,None,25.0,10.0
1765889795.4769413,7.601077556610107,-0.010179719996194955,0.0018604363161884498,-0.16748904627859318,0.0,0.0,0.0,0.75,1.0,WAITING_FOR_START,True,False,False,,,False,False,0,None,25.0,10.0
1765889795.5769644,7.701100826263428,-0.009513462281528889,0.0012553704355943863,-0.1666859112357706,0.0,0.0,0.0,0.75,1.0,WAITING_FOR_START,True,False,False,,,False,False,0,None,25.0,10.0
1765889795.6770182,7.801154375076294,-0.009513459827021647,0.001255368206509355,-0.16670725914379325,0.0,0.0,0.0,0.75,1.0,WAITING_FOR_START,True,False,False,,,False,False,0,None,25.0,10.0
1765889795.7870042,7.911140441894531,-0.01014822006694374,0.0008209335389934981,-0.16862088658433017,0.0,0.0,0.0,0.75,1.0,WAITING_FOR_START,True,False,False,,,False,False,0,None,25.0,10.0
1765889795.8971481,8.021284580230713,-0.009917665799768913,0.0006775897033605646,-0.17416309643718897,0.0,0.0,0.0,0.75,1.0,WAITING_FOR_START,True,False,False,,,False,False,0,None,25.0,10.0
1765889795.9972286,8.121364831924438,-0.010284420621717128,0.0013434464534011563,-0.1725453564930799,0.0,0.0,0.0,0.75,1.0,WAITING_FOR_START,True,False,False,,,False,False,0,None,25.0,10.0
1765889796.1067939,8.23093032836914,-0.01051108754993736,0.0017549684902660285,-0.16776542187257704,0.0,0.0,0.0,0.75,1.0,WAITING_FOR_START,True,False,False,,,False,False,0,None,25.0,10.0
1765889796.216966,8.341102123260498,-0.010446934357239803,0.0007994838266818757,-0.1709099747142684,0.0,0.0,0.0,0.75,1.0,WAITING_FOR_START,True,False,False,,,False,False,0,None,25.0,10.0
1765889796.326802,8.45093822479248,-0.010341826518962812,0.0013417503793738384,-0.17017790390740473,0.0,0.0,0.0,0.75,1.0,WAITING_FOR_START,True,False,False,,,False,False,0,None,25.0,10.0
1765889796.4369392,8.561075448989868,-0.010340976359156198,0.0013463658263747503,-0.16964668226940915,0.0,0.0,0.0,0.75,1.0,WAITING_FOR_START,True,False,False,,,False,False,0,None,25.0,10.0
1765889796.5370111,8.661147356033325,-0.009965547917145934,0.0008872647226699328,-0.1690929031604611,0.0,0.0,0.0,0.75,1.0,WAITING_FOR_START,True,False,False,,,False,False,0,None,25.0,10.0
1765889796.646805,8.770941257476807,-0.00996510203959987,0.0008867194712962851,-0.16903432813199082,0.0,0.0,0.0,0.75,1.0,WAITING_FOR_START,True,False,False,,,False,False,0,None,25.0,10.0
1765889796.7569394,8.881075859069824,-0.010281178375573217,0.0015136934507812107,-0.17227248492476122,0.0,0.0,0.0,0.75,1.0,WAITING_FOR_START,True,False,False,,,False,False,0,None,25.0,10.0
1765889796.8570127,8.981148958206177,-0.010559137460945445,0.001015689559708534,-0.16848586904471574,0.0,0.0,0.0,0.75,1.0,WAITING_FOR_START,True,False,False,,,False,False,0,None,25.0,10.0
1765889796.9667933,9.090929508209229,-0.010559155835816738,0.0010156566332967883,-0.16833120056340078,0.0,0.0,0.0,0.75,1.0,WAITING_FOR_START,True,False,False,,,False,False,0,None,25.0,10.0
1765889797.066809,9.190945148468018,-0.010839231090275517,0.00018699625599726818,-0.1662184207195878,0.0,0.0,0.0,0.75,1.0,WAITING_FOR_START,True,False,False,,,False,False,0,None,25.0,10.0
1765889797.1769876,9.301124095916748,-0.010839238162525218,0.00018697533128859593,-0.16619128359260493,0.0,0.0,0.0,0.75,1.0,WAITING_FOR_START,True,False,False,,,False,False,0,None,25.0,10.0
1765889797.277135,9.401271104812622,-0.010293959347451646,0.00013617569744339887,-0.16391821443973242,0.0,0.0,0.0,0.75,1.0,WAITING_FOR_START,True,False,False,,,False,False,0,None,25.0,10.0
1765889797.3868926,9.51102876663208,-0.011146036153909933,-2.1544420503598886e-05,-0.15881421772288817,0.0,0.0,0.0,0.75,1.0,WAITING_FOR_START,True,False,False,,,False,False,0,None,25.0,10.0
1765889797.486897,9.611033201217651,-0.011146037352928946,-2.1544642442332564e-05,-0.15884480364202602,0.0,0.0,0.0,0.75,1.0,WAITING_FOR_START,True,False,False,,,False,False,0,None,25.0,10.0
1765889797.5969908,9.721127033233643,-0.011590769364622396,-0.00030433313977211635,-0.16455808978279407,0.0,0.0,0.0,0.75,1.0,WAITING_FOR_START,True,False,False,,,False,False,0,None,25.0,10.0
1765889797.6969974,9.821133852005005,-0.011578784613605715,-0.0005952905602917487,-0.1613962654245018,0.0,0.0,0.0,0.75,1.0,WAITING_FOR_START,True,False,False,,,False,False,0,None,25.0,10.0
1765889797.806723,9.930859565734863,-0.01125297905462333,-0.0005072475783028193,-0.16090712767633164,0.0,0.0,0.0,0.75,1.0,WAITING_FOR_START,True,False,False,,,False,False,0,None,25.0,10.0
1765889797.9169512,10.041088104248047,-0.011197324826379654,-0.000492208015961918,-0.16034439783671672,0.0,0.0,0.0,0.75,1.0,WAITING_FOR_START,True,False,False,,,False,False,0,None,25.0,10.0
1765889798.026708,10.150844812393188,-0.011343701139206212,0.0007146854342293315,-0.1599652228115236,0.0,0.0,0.0,0.75,1.0,WAITING_FOR_START,True,False,False,,,False,False,0,None,25.0,10.0
1765889798.1369433,10.261079788208008,-0.011714619720689275,0.0001783209755140443,-0.16313065447417685,0.0,0.0,0.0,0.75,1.0,WAITING_FOR_START,True,False,False,,,False,False,0,None,25.0,10.0
1765889798.2466931,10.370829582214355,-0.011715058817149997,0.0001776722134110434,-0.1635176182014586,0.0,0.0,0.0,0.75,1.0,WAITING_FOR_START,True,False,False,,,False,False,0,None,25.0,10.0
1765889798.3569598,10.481096029281616,-0.011239477232891074,0.00038316507967789317,-0.16314881619976163,0.0,0.0,0.0,0.75,1.0,WAITING_FOR_START,True,False,False,,,False,False,0,None,25.0,10.0
1765889798.4668314,10.590967655181885,-0.011239445791565621,0.0003831786650821712,-0.16312051453808252,0.0,0.0,0.0,0.75,1.0,WAITING_FOR_START,True,False,False,,,False,False,0,None,25.0,10.0
1765889798.566843,10.690979480743408,-0.01114960194514029,0.0005904928512974717,-0.1612265575030012,0.0,0.0,0.0,0.75,1.0,WAITING_FOR_START,True,False,False,,,False,False,0,None,25.0,10.0
1765889798.6768408,10.800976991653442,-0.012166538320966955,0.00031657299626415336,-0.15578736057395837,0.0,0.0,0.0,0.75,1.0,WAITING_FOR_START,True,False,False,,,False,False,0,None,25.0,10.0
1765889798.786723,10.910859107971191,-0.012166542067396719,0.0003165719871169974,-0.15577444463272094,0.0,0.0,0.0,0.75,1.0,WAITING_FOR_START,True,False,False,,,False,False,0,None,25.0,10.0
1765889798.8867931,11.010929346084595,-0.011858718434905359,0.0008610514942935017,-0.15321160073457207,0.0,0.0,0.0,0.75,1.0,WAITING_FOR_START,True,False,False,,,False,False,0,None,25.0,10.0
1765889798.9868598,11.110996007919312,-0.011858718001745294,0.0008610522604685235,-0.15325012948412642,0.0,0.0,0.0,0.75,1.0,WAITING_FOR_START,True,False,False,,,False,False,0,None,25.0,10.0
1765889799.0868824,11.211018562316895,-0.011496601447250775,0.0004308646133967937,-0.15453826459187425,0.0,0.0,0.0,0.75,1.0,WAITING_FOR_START,True,False,False,,,False,False,0,None,25.0,10.0
1765889799.1968331,11.320969343185425,-0.011388525635750553,0.00046241791611289856,-0.15407489224076443,0.0,0.0,0.0,0.75,1.0,WAITING_FOR_START,True,False,False,,,False,False,0,None,25.0,10.0
1765889799.2969656,11.421101808547974,-0.01153045172305293,0.000977141260620035,-0.1535384939183615,0.0,0.0,0.0,0.75,1.0,WAITING_FOR_START,True,False,False,,,False,False,0,None,25.0,10.0
1765889799.4067028,11.530839681625366,-0.011889355156851121,0.0005617783427543373,-0.15213375975910992,0.0,0.0,0.0,0.75,1.0,WAITING_FOR_START,True,False,False,,,False,False,0,None,25.0,10.0
1765889799.5067194,11.630855798721313,-0.011935679640687284,0.0004364852409399768,-0.15243457196415022,0.0,0.0,0.0,0.75,1.0,WAITING_FOR_START,True,False,False,,,False,False,0,None,25.0,10.0
1765889799.6067722,11.730908870697021,-0.012742437530620113,0.0003078371578581533,-0.15069812113318193,0.0,0.0,0.0,0.75,1.0,WAITING_FOR_START,True,False,False,,,False,False,0,None,25.0,10.0
1765889799.7069292,11.83106541633606,-0.01288024815231075,0.00028586146503066517,-0.14861439584093006,0.0,0.0,0.0,0.75,1.0,WAITING_FOR_START,True,False,False,,,False,False,0,None,25.0,10.0
1765889799.8169322,11.941068649291992,-0.011785904496194115,0.00017212444673798353,-0.15035909809233416,0.0,0.0,0.0,0.75,1.0,WAITING_FOR_START,True,False,False,,,False,False,0,None,25.0,10.0
1765889799.91695,12.041086196899414,-0.012326949475664786,-0.00022971885573736062,-0.14831632878829915,0.0,0.0,0.0,0.75,1.0,WAITING_FOR_START,True,False,False,,,False,False,0,None,25.0,10.0
1765889800.0169797,12.14111614227295,-0.01233923440326613,-0.0002384048199430565,-0.14723447183323302,0.0,0.0,0.0,0.75,1.0,WAITING_FOR_START,True,False,False,,,False,False,0,None,25.0,10.0
1765889800.1169837,12.241120100021362,-0.012523086809805411,-0.000747724966730263,-0.1452942766381824,0.0,0.0,0.0,0.75,1.0,WAITING_FOR_START,True,False,False,,,False,False,0,None,25.0,10.0
1765889800.2266967,12.350833177566528,-0.01252708545063594,-0.0007588022674170705,-0.1445470745267876,0.0,0.0,0.0,0.75,1.0,WAITING_FOR_START,True,False,False,,,False,False,0,None,25.0,10.0
1765889800.3268263,12.450962543487549,-0.013042864308117607,-0.00020865263114746806,-0.1440219705659196,0.0,0.0,0.0,0.75,1.0,WAITING_FOR_START,True,False,False,,,False,False,0,None,25.0,10.0
1765889800.4369662,12.561102390289307,-0.012453021320394449,6.772595806831962e-05,-0.15031745221316584,0.0,0.0,0.0,0.75,1.0,MANUAL_MODE,True,False,False,,,False,False,0,None,25.0,10.0
1765889800.5468245,12.670961141586304,-0.012452315772412825,6.80488434492337e-05,-0.15107806118131073,0.0,0.0,0.0,0.75,1.0,MANUAL_MODE,True,False,False,,,False,False,0,None,25.0,10.0
1765889800.6569464,12.78108286857605,-0.011405839661372475,-0.000451240452885391,-0.14682106208181622,0.0,0.0,0.0,0.75,1.0,MANUAL_MODE,True,False,False,,,False,False,0,None,25.0,10.0
1765889800.7571337,12.881270408630371,-0.011405770477480303,-0.00045127478377389804,-0.14664772850598062,0.0,0.0,0.0,0.75,1.0,MANUAL_MODE,True,False,False,,,False,False,0,None,25.0,10.0
1765889800.8667789,12.990915060043335,-0.011463857908999288,-0.0006530854197571197,-0.14402085340716653,0.0,0.0,0.0,0.75,1.0,MANUAL_MODE,True,False,False,,,False,False,0,None,25.0,10.0
1765889800.9668627,13.090999126434326,-0.01091534871940075,-0.0009550677179381487,-0.14562105165893513,0.0,0.0,0.0,0.75,1.0,MANUAL_MODE,True,False,False,,,False,False,0,None,25.0,10.0
1765889801.066911,13.191047430038452,-0.010915334868829297,-0.0009550753432386024,-0.14568864943601056,0.0,0.0,0.0,0.75,1.0,MANUAL_MODE,True,False,False,,,False,False,0,None,25.0,10.0
1765889801.17699,13.30112624168396,-0.011568929495617044,-0.00022249476821128145,-0.14283649011901467,0.0,0.0,0.0,0.75,1.0,MANUAL_MODE,True,False,False,,,False,False,0,None,25.0,10.0
1765889801.2867796,13.410916090011597,-0.010530179466452657,9.743073577974252e-05,-0.14630415754945147,0.0,0.0,0.0,0.75,1.0,MANUAL_MODE,True,False,False,,,False,False,0,None,25.0,10.0
1765889801.3868244,13.510960578918457,-0.010530178004752278,9.743118596594908e-05,-0.146336855348995,0.0,0.0,0.0,0.75,1.0,MANUAL_MODE,True,False,False,,,False,False,0,None,25.0,10.0
1765889801.4968805,13.62101697921753,-0.010636069406075437,-0.0008999105245873033,-0.14265988456473977,0.0,0.0,0.0,0.75,1.0,MANUAL_MODE,True,False,False,,,False,False,0,None,25.0,10.0
1765889801.5969646,13.721100807189941,-0.011052718441597529,-0.0008250163285472177,-0.1433970906131279,0.0,0.0,0.0,0.75,1.0,MANUAL_MODE,True,False,False,,,False,False,0,None,25.0,10.0
1765889801.706759,13.830895185470581,-0.010857182406708799,-0.0010436224354316366,-0.14366712777206736,0.0,0.0,0.0,0.75,1.0,MANUAL_MODE,True,False,False,,,False,False,0,None,25.0,10.0
1765889801.806814,13.930950164794922,-0.010779794161074774,-0.001088871593399786,-0.14137854342648382,0.0,0.0,0.0,0.75,1.0,MANUAL_MODE,True,False,False,,,False,False,0,None,25.0,10.0
1765889801.9068284,14.030964612960815,-0.010869183213323797,-0.0016399490822516971,-0.14066401152335573,0.0,0.0,0.0,0.75,1.0,MANUAL_MODE,True,False,False,,,False,False,0,None,25.0,10.0
1765889802.016958,14.141094446182251,-0.010884452692289128,-0.0017340843440720843,-0.13982114469086682,0.0,0.0,0.0,0.75,1.0,MANUAL_MODE,True,False,False,,,False,False,0,None,25.0,10.0
1765889802.116983,14.241119384765625,-0.010741191180806834,-0.001091215728685004,-0.13839977892153854,0.0,0.0,0.0,0.75,1.0,MANUAL_MODE,True,False,False,,,False,False,0,None,25.0,10.0
1765889802.2171423,14.341278553009033,-0.01104569161248116,-0.0010135956487670142,-0.13759391192554205,0.0,0.0,0.0,0.75,1.0,MANUAL_MODE,True,False,False,,,False,False,0,None,25.0,10.0
1765889802.3267958,14.450932025909424,-0.011052382015217594,-0.0010122115616575866,-0.13753116886312533,0.0,0.0,0.0,0.75,1.0,MANUAL_MODE,True,False,False,,,False,False,0,None,25.0,10.0
1765889802.4268022,14.550938367843628,-0.011233270001895048,-0.001568412070138049,-0.13715979046719973,0.0,0.0,0.0,0.75,1.0,MANUAL_MODE,True,False,False,,,False,False,0,None,25.0,10.0
1765889802.52686,14.650996208190918,-0.011234752788321685,-0.001572971392104613,-0.13708079977233112,0.0,0.0,0.0,0.75,1.0,MANUAL_MODE,True,False,False,,,False,False,0,None,25.0,10.0
1765889802.6268966,14.751033067703247,-0.01161541070716169,-0.0016749874007901697,-0.13531905507786135,0.0,0.0,0.0,0.75,1.0,MANUAL_MODE,True,False,False,,,False,False,0,None,25.0,10.0
1765889802.7369604,14.861096858978271,-0.010368035821979078,-0.0012344793800513976,-0.14298764514756535,0.0,0.0,0.0,0.75,1.0,MANUAL_MODE,True,False,False,,,False,False,0,None,25.0,10.0
1765889802.8369703,14.961106777191162,-0.010366550672188881,-0.0012339552178156194,-0.1439440511288943,0.0,-0.15,0.0,0.75,1.0,MANUAL_MODE,True,False,False,,,False,False,0,None,25.0,10.0
1765889802.9467878,15.070924282073975,-0.011095960691007739,-0.001265098957411898,-0.1375388271325768,0.0,-0.15,0.0,0.75,1.0,MANUAL_MODE,True,False,False,,,False,False,0,None,25.0,10.0
1765889803.0469344,15.17107081413269,-0.011144311678032292,-0.0015997450481600951,-0.13537528200383342,0.0,-0.15,0.0,0.75,1.0,MANUAL_MODE,True,False,False,,,False,False,0,None,25.0,10.0
1765889803.1569424,15.281078577041626,-0.011144333446272112,-0.0015998967399244834,-0.13528313793231916,0.0,-0.15,0.0,0.75,1.0,MANUAL_MODE,True,False,False,,,False,False,0,None,25.0,10.0
1765889803.257164,15.381300449371338,-0.011744387543057148,-0.0018360311460194443,-0.13115339221542577,0.0,-0.15,0.0,0.75,1.0,MANUAL_MODE,True,False,False,,,False,False,0,None,25.0,10.0
1765889803.3668,15.490936279296875,-0.011744427213424476,-0.0018360467571763024,-0.13104927822400292,0.0,0.0,0.0,0.75,1.0,MANUAL_MODE,True,False,False,,,False,False,0,None,25.0,10.0
1765889803.4769444,15.601080656051636,-0.011732845691414936,-0.002518670026029139,-0.13218042143814301,0.0,0.0,-0.03,0.75,1.0,MANUAL_MODE,True,False,False,,,False,False,0,None,25.0,10.0
1765889803.5769472,15.701083660125732,-0.011623800335988175,-0.0020213523401643005,-0.13028395693556405,0.0,0.0,-0.09,0.75,1.0,MANUAL_MODE,True,False,False,,,False,False,0,None,25.0,10.0
1765889803.686803,15.81093955039978,-0.01162379993426222,-0.002021350508024353,-0.13029782629822861,0.0,0.0,-0.15000000000000002,0.75,1.0,MANUAL_MODE,True,False,False,,,False,False,0,None,25.0,10.0
1765889803.7969723,15.921108484268188,-0.012301082507911325,-0.0021283268501082857,-0.12857968607871761,0.0,0.0,-0.19500000000000006,0.75,1.0,MANUAL_MODE,True,False,False,,,False,False,0,None,25.0,10.0
1765889803.9067862,16.030922651290894,-0.011720317179076279,-0.0020350001330661617,-0.12930635372257981,0.0,0.0,-0.19290937500000005,0.75,1.0,MANUAL_MODE,True,False,False,,,False,False,0,None,25.0,10.0
1765889804.0068119,16.130948543548584,-0.011981609080165696,-0.002612601220764716,-0.13372489314001967,0.0,0.0,-0.15712589162109375,0.75,1.0,MANUAL_MODE,True,False,False,,,False,False,0,None,25.0,10.0
1765889804.1169488,16.241085052490234,-0.012043189506169411,-0.0027139904852671237,-0.1379915250365613,0.0,0.0,-0.13471581132863522,0.75,1.0,MANUAL_MODE,True,False,False,,,False,False,0,None,25.0,10.0
1765889804.2169566,16.341093063354492,-0.012645211500318705,-0.002783015188438509,-0.13348923722299944,0.0,0.0,-0.16658101972409328,0.75,1.0,MANUAL_MODE,True,False,False,,,False,False,0,None,25.0,10.0
1765889804.3268006,16.450936794281006,-0.012658304991120051,-0.0027845164196692138,-0.13167049095028105,0.0,0.0,-0.22658101972409334,0.75,1.0,MANUAL_MODE,True,False,False,,,False,False,0,None,25.0,10.0
1765889804.4369488,16.56108522415161,-0.012048432645653365,-0.00254204397465684,-0.13043868846376938,0.0,0.0,-0.2715810197240934,0.75,1.0,MANUAL_MODE,True,False,False,,,False,False,0,None,25.0,10.0
1765889804.5370584,16.661194562911987,-0.012012403933502105,-0.002964980580562405,-0.12841006472845606,0.0,0.0,-0.33158101972409343,0.75,1.0,MANUAL_MODE,True,False,False,,,False,False,0,None,25.0,10.0
1765889804.6468413,16.77097749710083,-0.012012362003849067,-0.0029654832230294136,-0.12822126624063124,0.0,0.0,-0.27007481294664726,0.75,1.0,MANUAL_MODE,True,False,False,,,False,False,0,None,25.0,10.0
1765889804.7571054,16.88124179840088,-0.012768103282415245,-0.002972751553798482,-0.12791670940666044,0.0,0.0,-0.3150748129466473,0.75,1.0,MANUAL_MODE,True,False,False,,,False,False,0,None,25.0,10.0
1765889804.8668,16.990936279296875,-0.012431540063904995,-0.003449187420386791,-0.1246319582841462,0.0,0.0,-0.39007481294664736,0.75,1.0,MANUAL_MODE,True,False,False,,,False,False,0,None,25.0,10.0
1765889804.9668381,17.0909743309021,-0.012431531564016237,-0.0034491994509694437,-0.12458620025009459,0.0,0.0,-0.4,0.75,1.0,MANUAL_MODE,True,False,False,,,False,False,0,None,25.0,10.0
1765889805.0769231,17.201059579849243,-0.011883969905474627,-0.0034595446148172077,-0.13090985883517803,0.0,0.0,-0.4,0.75,1.0,MANUAL_MODE,True,False,False,,,False,False,0,None,25.0,10.0
1765889805.1769705,17.301106929779053,-0.011883967888243085,-0.0034595446529290634,-0.13097796433306286,0.0,0.0,-0.37507481294664735,0.75,1.0,MANUAL_MODE,True,False,False,,,False,False,0,None,25.0,10.0
1765889805.2770536,17.401190042495728,-0.011844134364076024,-0.0034472125193420943,-0.12713876166160887,0.0,0.0,-0.3150748129466473,0.75,1.0,MANUAL_MODE,True,False,False,,,False,False,0,None,25.0,10.0
1765889805.386977,17.511113166809082,-0.012052357701283687,-0.0030188932591811188,-0.12576313675926087,0.0,0.0,-0.25507481294664724,0.75,1.0,MANUAL_MODE,True,False,False,,,False,False,0,None,25.0,10.0
1765889805.496956,17.621092319488525,-0.012545605643574287,-0.0030742720269906426,-0.12459566222534058,0.0,0.0,-0.20776002936262508,0.75,1.0,MANUAL_MODE,True,False,False,,,False,False,0,None,25.0,10.0
1765889805.597059,17.721195936203003,-0.012850449291852611,-0.003108498341855896,-0.12109583856585004,0.0,0.0,-0.1692218424160416,0.75,1.0,MANUAL_MODE,True,False,False,,,False,False,0,None,25.0,10.0
1765889805.7068124,17.83094882965088,-0.012379541794519756,-0.002743582416544773,-0.11993923438151555,0.0,0.0,-0.14508657714145365,0.75,1.0,MANUAL_MODE,True,False,False,,,False,False,0,None,25.0,10.0
1765889805.8068118,17.930948734283447,-0.012293015169029548,-0.0031371401070152093,-0.11827465136985005,0.0,0.0,-0.11226522767918003,0.75,1.0,MANUAL_MODE,True,False,False,,,False,False,0,None,25.0,10.0
1765889805.916951,18.04108738899231,-0.012291975506665491,-0.003215015844867423,-0.11799569012876532,0.0,0.0,-0.09625339958143696,0.75,1.0,MANUAL_MODE,True,False,False,,,False,False,0,None,25.0,10.0
1765889806.016981,18.141117334365845,-0.01208394295326653,-0.003166922887556921,-0.11779031520759631,0.0,0.0,-0.0825252584661345,0.75,1.0,MANUAL_MODE,True,False,False,,,False,False,0,None,25.0,10.0
1765889806.126818,18.250954389572144,-0.012079418413679002,-0.0031658769045442,-0.11773005755268962,0.0,0.0,-0.06385647186335534,0.75,1.0,MANUAL_MODE,True,False,False,,,False,False,0,None,25.0,10.0
1765889806.2268999,18.351036548614502,-0.012168500638963228,-0.0029659922584560866,-0.1144544180686271,0.0,0.0,-0.05474894256384428,0.75,1.0,MANUAL_MODE,True,False,False,,,False,False,0,None,25.0,10.0
1765889806.3370814,18.461217641830444,-0.011940398026379714,-0.003309625497230356,-0.11770652355957267,0.0,0.0,-0.029593355899142186,0.75,1.0,MANUAL_MODE,True,False,False,,,False,False,0,None,25.0,10.0
1765889806.4468455,18.570981979370117,-0.01194012625313676,-0.0033100355590521355,-0.11822522195356555,0.0,0.0,0.015406644100857812,0.75,1.0,MANUAL_MODE,True,False,False,,,False,False,0,None,25.0,10.0
1765889806.546863,18.67099928855896,-0.01190545214126938,-0.003038340469017455,-0.11500149748002464,0.0,0.0,0.05738631189581492,0.75,1.0,MANUAL_MODE,True,False,False,,,False,False,0,None,25.0,10.0
1765889806.6569543,18.78109049797058,-0.012168345430887682,-0.003026434577910076,-0.11223454852337511,0.0,0.0,0.04674150970359059,0.75,1.0,MANUAL_MODE,True,False,False,,,False,False,0,None,25.0,10.0
1765889806.7570035,18.881139993667603,-0.012168362812141743,-0.0030264337989289155,-0.1121801684025776,0.0,0.0,0.03807125178801018,0.75,1.0,MANUAL_MODE,True,False,False,,,False,False,0,None,25.0,10.0
1765889806.866731,18.990867614746094,-0.011062300711786039,-0.00352607192410291,-0.1168884875154994,0.0,0.0,0.031009272526657958,0.75,1.0,MANUAL_MODE,True,False,False,,,False,False,0,None,25.0,10.0
1765889806.9772642,19.10140037536621,-0.01106227278233767,-0.0035260845405891057,-0.11701739193746974,0.0,0.0,0.0429858684553088,0.75,1.0,MANUAL_MODE,True,False,False,,,False,False,0,None,25.0,10.0
1765889807.086794,19.210930347442627,-0.011196531405052933,-0.0032305873707552534,-0.10995031487859741,0.0,0.0,0.1179858684553088,0.75,1.0,MANUAL_MODE,True,False,False,,,False,False,0,None,25.0,10.0
1765889807.1868017,19.310937881469727,-0.01203854692649804,-0.0033979427932631597,-0.10589776434097864,0.0,0.0,0.14058657503254338,0.75,1.0,MANUAL_MODE,True,False,False,,,False,False,0,None,25.0,10.0
1765889807.28682,19.410956144332886,-0.012038548111356538,-0.003397943028760988,-0.10594503286899837,0.0,0.0,0.10553541476852685,0.75,1.0,MANUAL_MODE,True,False,False,,,False,False,0,None,25.0,10.0
1765889807.3970056,19.52114200592041,-0.011426591969617568,-0.0029205486203083336,-0.10468592877722749,0.0,0.0,0.04553541476852685,0.75,1.0,MANUAL_MODE,True,False,False,,,False,False,0,None,25.0,10.0
1765889807.506798,19.630934238433838,-0.011735643932456711,-0.002826595043491741,-0.10428601666258075,0.0,0.0,0.0,0.75,1.0,MANUAL_MODE,True,False,False,,,False,False,0,None,25.0,10.0
1765889807.6068022,19.73093843460083,-0.012136212411080741,-0.0023496965374324823,-0.10625479614568256,0.0,0.0,0.0,0.75,1.0,MANUAL_MODE,True,False,False,,,False,False,0,None,25.0,10.0
1765889807.7169592,19.841095685958862,-0.01219561968627969,-0.0022709740687249986,-0.10925369405756591,0.0,0.0,-0.06,0.75,1.0,MANUAL_MODE,True,False,False,,,False,False,0,None,25.0,10.0
1765889807.8268027,19.950938940048218,-0.012674085714679038,-0.0031774282667258345,-0.10473367381590215,0.0,0.0,-0.12,0.75,1.0,MANUAL_MODE,True,False,False,,,False,False,0,None,25.0,10.0
1765889807.9368541,20.06099033355713,-0.012678007828412084,-0.0031848587138342244,-0.10356611319431863,0.0,0.0,-0.09774074999999997,0.75,1.0,MANUAL_MODE,True,False,False,,,False,False,0,None,25.0,10.0
1765889808.0368574,20.160994052886963,-0.012688926554665454,-0.0028749601474924694,-0.10128554567630133,0.0,0.0,-0.09880047553124997,0.75,1.0,MANUAL_MODE,True,False,False,,,False,False,0,None,25.0,10.0
1765889808.1368623,20.260998487472534,-0.013224062963750453,-0.0033746154698656204,-0.10466251707726215,0.0,0.0,-0.12880047553124996,0.75,1.0,MANUAL_MODE,True,False,False,,,False,False,0,None,25.0,10.0
1765889808.246809,20.37094521522522,-0.013224698503051371,-0.00337520932236975,-0.10512199707505054,0.0,0.0,-0.1793604517546875,0.75,1.0,MANUAL_MODE,True,False,False,,,False,False,0,None,25.0,10.0
1765889808.3469768,20.471112966537476,-0.013198006967705662,-0.0034683029161360845,-0.10326925939546427,0.0,0.0,-0.16877916732317516,0.75,1.0,MANUAL_MODE,True,False,False,,,False,False,0,None,25.0,10.0
1765889808.456838,20.580974340438843,-0.013627026327131158,-0.0038970345954856527,-0.10277958506426543,0.0,0.0,-0.22877916732317521,0.75,1.0,MANUAL_MODE,True,False,False,,,False,False,0,None,25.0,10.0
1765889808.557255,20.68139123916626,-0.013627054690956087,-0.003897062936706113,-0.10278394665211366,0.0,0.0,-0.27377916732317525,0.75,1.0,MANUAL_MODE,True,False,False,,,False,False,0,None,25.0,10.0
1765889808.6667323,20.790868520736694,-0.013557124695614995,-0.0038425572980819106,-0.10194243250803581,0.0,0.0,-0.20473141358370733,0.75,1.0,MANUAL_MODE,True,False,False,,,False,False,0,None,25.0,10.0
1765889808.7770445,20.901180744171143,-0.013557122929795341,-0.0038425559217465134,-0.10193774024351399,0.0,0.0,-0.1597314135837073,0.75,1.0,MANUAL_MODE,True,False,False,,,False,False,0,None,25.0,10.0
1765889808.8772848,21.001421451568604,-0.013821585008533211,-0.0036493002068999076,-0.10040504424065588,0.0,0.0,-0.1035451007592958,0.75,1.0,MANUAL_MODE,True,False,False,,,False,False,0,None,25.0,10.0
1765889808.9866533,21.110790014266968,-0.014028324595790464,-0.0037762357094064765,-0.09722268203410245,0.0,0.0,-0.08877698076350123,0.75,1.0,MANUAL_MODE,True,False,False,,,False,False,0,None,25.0,10.0
1765889809.0969548,21.2210910320282,-0.014057284784161692,-0.004106551118732293,-0.09808325385191807,0.0,0.0,-0.07230940568800151,0.75,1.0,MANUAL_MODE,True,False,False,,,False,False,0,None,25.0,10.0
1765889809.1969779,21.321114778518677,-0.014075182975479255,-0.004310697048583263,-0.10060881740104932,0.0,0.0,-0.035259238633421355,0.75,1.0,MANUAL_MODE,True,False,False,,,False,False,0,None,25.0,10.0
1765889809.3066998,21.43083620071411,-0.013271871516344303,-0.004173118946335519,-0.09952735187275863,0.0,0.0,0.024740761366578642,0.75,1.0,MANUAL_MODE,True,False,False,,,False,False,0,None,25.0,10.0
1765889809.4067805,21.530916929244995,-0.013539929490118155,-0.004426740143372541,-0.09861512094768088,0.0,0.0,0.03586603713333722,0.75,1.0,MANUAL_MODE,True,False,False,,,False,False,0,None,25.0,10.0
1765889809.5169494,21.641085863113403,-0.013609159479584684,-0.004474078275608111,-0.09910645386215933,0.0,0.0,0.027752455837443485,0.75,1.0,MANUAL_MODE,True,False,False,,,False,False,0,None,25.0,10.0
1765889809.6170886,21.741224765777588,-0.01305375885722704,-0.0041317045379948986,-0.09793806955380902,0.0,0.0,0.023794261823628104,0.75,1.0,MANUAL_MODE,True,False,False,,,False,False,0,None,25.0,10.0
1765889809.7267933,21.850929737091064,-0.01304167934328903,-0.004124258186346304,-0.09747784251327474,0.0,0.0,0.019380574969481486,0.75,1.0,MANUAL_MODE,True,False,False,,,False,False,0,None,25.0,10.0
1765889809.8269877,21.9511239528656,-0.01322336869990794,-0.004248900439875313,-0.0977809133540326,0.0,0.0,0.015785599441236225,0.75,1.0,MANUAL_MODE,True,False,False,,,False,False,0,None,25.0,10.0
1765889809.9369547,22.06109094619751,-0.013597570846969853,-0.0037880801236000084,-0.09463869280708082,0.0,0.0,0.012857469404883413,0.75,1.0,MANUAL_MODE,True,False,False,,,False,False,0,None,25.0,10.0
1765889810.0468092,22.170945405960083,-0.013598013499390035,-0.003787531617031723,-0.09427983197462453,0.0,0.0,-0.04714253059511658,0.75,1.0,MANUAL_MODE,True,False,False,,,False,False,0,None,25.0,10.0
1765889810.146885,22.271021127700806,-0.013150348481723874,-0.0045724811934175135,-0.09551655995369401,0.0,0.0,-0.07328540406536074,0.75,1.0,MANUAL_MODE,True,False,False,,,False,False,0,None,25.0,10.0
1765889810.2569685,22.381104707717896,-0.013817977711114506,-0.0035313825629980588,-0.09169331895634691,0.0,0.0,-0.056706848662761135,0.75,1.0,MANUAL_MODE,True,False,False,,,False,False,0,None,25.0,10.0
1765889810.357652,22.481789588928223,-0.013818021862348363,-0.0035313137111219507,-0.09156962257515922,0.0,0.0,-0.048619034372234825,0.75,1.0,MANUAL_MODE,True,False,False,,,False,False,0,None,25.0,10.0
1765889810.4667969,22.590933322906494,-0.013709747088993496,-0.002623594306031689,-0.09292689120506381,0.0,0.0,-0.02668474459489483,0.75,1.0,MANUAL_MODE,True,False,False,,,False,False,0,None,25.0,10.0
1765889810.5668075,22.690943717956543,-0.013709744354921598,-0.002623571384994425,-0.09298626925702536,0.0,0.0,0.03331525540510517,0.75,1.0,MANUAL_MODE,True,False,False,,,False,False,0,None,25.0,10.0
1765889810.666832,22.790968418121338,-0.013954034435514458,-0.004494662629054177,-0.09537211269352852,0.0,0.0,0.057142018003107406,0.75,1.0,MANUAL_MODE,True,False,False,,,False,False,0,None,25.0,10.0
1765889810.7770443,22.901180744171143,-0.01422497892384676,-0.003936990125013878,-0.0944880321532402,0.0,0.0,0.04654253080114349,0.75,1.0,MANUAL_MODE,True,False,False,,,False,False,0,None,25.0,10.0
1765889810.8867984,23.010934591293335,-0.014224979921991466,-0.003936988070362677,-0.09446679801548008,0.0,0.0,0.03790918222834887,0.75,1.0,MANUAL_MODE,True,False,False,,,False,False,0,None,25.0,10.0
1765889810.986902,23.11103844642639,-0.012717925695505313,-0.0040194089343412315,-0.10116927551679566,0.0,0.0,0.0325023851130306,0.75,1.0,MANUAL_MODE,True,False,False,,,False,False,0,None,25.0,10.0
1765889811.0869765,23.21111273765564,-0.012717923574824389,-0.0040194090503213676,-0.10117347448586322,0.0,0.0,0.041473395814470376,0.75,1.0,MANUAL_MODE,True,False,False,,,False,False,0,None,25.0,10.0
1765889811.1969562,23.32109260559082,-0.012977275133364533,-0.0032878270702446704,-0.09639050515668757,0.0,0.0,0.10147339581447037,0.75,1.0,MANUAL_MODE,True,False,False,,,False,False,0,None,25.0,10.0
1765889811.2971697,23.421305894851685,-0.013043763795362625,-0.0034350267825065243,-0.09816926128063486,0.0,0.0,0.10511723972255951,0.75,1.0,MANUAL_MODE,True,False,False,,,False,False,0,None,25.0,10.0
1765889811.4066648,23.53080129623413,-0.012228873831660258,-0.0028271957409447793,-0.0969482023730599,0.0,0.0,0.08133771629993433,0.75,1.0,MANUAL_MODE,True,False,False,,,False,False,0,None,25.0,10.0
1765889811.5068135,23.63094973564148,-0.012089674076319171,-0.0027233658456882635,-0.09548008405254294,0.0,0.0,0.0697369245126562,0.75,1.0,MANUAL_MODE,True,False,False,,,False,False,0,None,25.0,10.0
1765889811.6068404,23.730976581573486,-0.011987167615379058,-0.0027533445465913477,-0.09438123715867164,0.0,0.0,0.05680116087133666,0.75,1.0,MANUAL_MODE,True,False,False,,,False,False,0,None,25.0,10.0
1765889811.7068462,23.830982446670532,-0.011987265244968143,-0.0032928163026282975,-0.09392518451773846,0.0,0.0,0.04869989530206226,0.75,1.0,MANUAL_MODE,True,False,False,,,False,False,0,None,25.0,10.0
1765889811.8170016,23.94113802909851,-0.011990273006874242,-0.003384094307874842,-0.09497046001272125,0.0,0.0,0.03768305064298157,0.75,1.0,MANUAL_MODE,True,False,False,,,False,False,0,None,25.0,10.0
1765889811.917291,24.041427612304688,-0.012909967359902151,-0.002349997011989269,-0.09203030362388276,0.0,0.0,0.03230850554502632,0.75,1.0,MANUAL_MODE,True,False,False,,,False,False,0,None,25.0,10.0
1765889812.0173218,24.14145803451538,-0.012033295422687613,-0.0030241773828691017,-0.09201753728194895,0.0,0.0,0.026315479694583588,0.75,1.0,MANUAL_MODE,True,False,False,,,False,False,0,None,25.0,10.0
1765889812.1173255,24.241461992263794,-0.012013793494765505,-0.003039329398989734,-0.09250943958066671,0.0,0.0,0.022562234403143602,0.75,1.0,MANUAL_MODE,True,False,False,,,False,False,0,None,25.0,10.0
1765889812.2269528,24.351089477539062,-0.013618840464049988,-0.002962917997023065,-0.08956578242356095,0.0,0.0,0.01837708093532548,0.75,1.0,MANUAL_MODE,True,False,False,,,False,False,0,None,25.0,10.0
1765889812.3370163,24.46115255355835,-0.013631997462643758,-0.002962291632294776,-0.08882360567981351,0.0,0.0,0.01575604976692468,0.75,1.0,MANUAL_MODE,True,False,False,,,False,False,0,None,25.0,10.0
1765889812.4371789,24.561315298080444,-0.013770923302505225,-0.0031282508736678585,-0.08814742412508281,0.0,0.0,0.012191730959947633,0.75,1.0,MANUAL_MODE,True,False,False,,,False,False,0,None,25.0,10.0
1765889812.5468752,24.671011447906494,-0.013716744215410257,-0.0036532388921997586,-0.09288608555509725,0.0,0.0,0.0,0.75,1.0,MANUAL_MODE,True,False,False,,,False,False,0,None,25.0,10.0
1765889812.657039,24.781175136566162,-0.013716719580770854,-0.0036534767847985626,-0.09328338610340126,0.0,0.0,0.0,0.75,1.0,MANUAL_MODE,True,False,False,,,False,False,0,None,25.0,10.0
1765889812.7669044,24.891040563583374,-0.014324699518474447,-0.003027029172385435,-0.09101534786426235,0.0,-0.15,0.0,0.75,1.0,MANUAL_MODE,True,False,False,,,False,False,0,None,25.0,10.0
1765889812.8771594,25.001295566558838,-0.014324714870726616,-0.0030270133538014316,-0.09095042308366885,0.0,-0.15,0.0,0.75,1.0,MANUAL_MODE,True,False,False,,,False,False,0,None,25.0,10.0
1765889812.9870248,25.111161470413208,-0.013955401248393928,-0.003452802624275892,-0.08379398981431052,0.0,0.0,0.0,0.75,1.0,MANUAL_MODE,True,False,False,,,False,False,0,None,25.0,10.0
1765889813.0970285,25.221165418624878,-0.01498941310956644,-0.003584756280811702,-0.08765711024847889,0.0,0.0,0.0,0.75,1.0,MANUAL_MODE,True,False,False,,,False,False,0,None,25.0,10.0
1765889813.20687,25.331006288528442,-0.01529732612808787,-0.004388090507132871,-0.0850496954398885,0.0,0.0,0.0,0.75,1.0,MANUAL_MODE,True,False,False,,,False,False,0,None,25.0,10.0
1765889813.3169584,25.441094875335693,-0.015349923910611102,-0.0045253163601955085,-0.0818942242153895,0.0,-0.15,0.0,0.75,1.0,MANUAL_MODE,True,False,False,,,False,False,0,None,25.0,10.0
1765889813.416974,25.541110515594482,-0.0154259756139068,-0.003886211992313668,-0.08471802407025919,0.0,-0.15,0.0,0.75,1.0,MANUAL_MODE,True,False,False,,,False,False,0,None,25.0,10.0
1765889813.5170357,25.64117193222046,-0.014678166367073147,-0.004176740864863689,-0.08717578113300029,0.0,-0.15,0.0,0.75,1.0,MANUAL_MODE,True,False,False,,,False,False,0,None,25.0,10.0
1765889813.6267967,25.750932931900024,-0.014661866147839793,-0.004183361938829071,-0.08770048084254611,0.0,-0.15,0.0,0.75,1.0,MANUAL_MODE,True,False,False,,,False,False,0,None,25.0,10.0
1765889813.726923,25.851059198379517,-0.015245534528118148,-0.0042444174543209935,-0.09012259705178494,0.0,-0.15,0.0,0.75,1.0,MANUAL_MODE,True,False,False,,,False,False,0,None,25.0,10.0
1765889813.8369417,25.96107816696167,-0.014803974183052794,-0.004043031271405663,-0.09072648415777174,0.0,-0.15,0.03,0.75,1.0,MANUAL_MODE,True,False,False,,,False,False,0,None,25.0,10.0
1765889813.9369497,26.06108593940735,-0.014803444082217121,-0.004042791500842561,-0.09068768811593841,0.0,-0.15,0.09,0.75,1.0,MANUAL_MODE,True,False,False,,,False,False,0,None,25.0,10.0
1765889814.0369542,26.16109037399292,-0.013487191382118702,-0.0033793405499608006,-0.09065703467677544,0.0,-0.15,0.07716374999999999,0.75,1.0,MANUAL_MODE,True,False,False,,,False,False,0,None,25.0,10.0
1765889814.1370585,26.261194944381714,-0.013485628135269856,-0.0033785526027768934,-0.09063480320641837,0.0,-0.15,0.06615827015624999,0.75,1.0,MANUAL_MODE,True,False,False,,,False,False,0,None,25.0,10.0
1765889814.2472656,26.3714017868042,-0.014829939227746865,-0.004067819566022207,-0.0868557964346266,0.0,-0.15,0.08672244687521484,0.75,1.0,MANUAL_MODE,True,False,False,,,False,False,0,None,25.0,10.0
1765889814.357047,26.481183767318726,-0.01497657736735174,-0.0044523316406505295,-0.08923892477782758,0.0,-0.15,0.14672244687521485,0.75,1.0,MANUAL_MODE,True,False,False,,,False,False,0,None,25.0,10.0
1765889814.4667947,26.59093141555786,-0.014976587021552752,-0.004452357040618597,-0.08935725502984226,0.0,-0.15,0.1459545083048814,0.75,1.0,MANUAL_MODE,True,False,False,,,False,False,0,None,25.0,10.0
1765889814.566798,26.690934419631958,-0.014931636449757327,-0.00414833830937473,-0.09120655898540164,0.0,-0.15,0.1188808592300028,0.75,1.0,MANUAL_MODE,True,False,False,,,False,False,0,None,25.0,10.0
1765889814.6769347,26.80107092857361,-0.014931635314699291,-0.0041483306325223596,-0.09123982015887933,0.0,0.0,0.09682920284820745,0.75,1.0,MANUAL_MODE,True,False,False,,,False,False,0,None,25.0,10.0
1765889814.7769408,26.901077270507812,-0.013810024312067189,-0.004825458603014465,-0.0925014202133223,0.0,0.0,0.08301893779198184,0.75,1.0,MANUAL_MODE,True,False,False,,,False,False,0,None,25.0,10.0
1765889814.8867996,27.01093578338623,-0.014725294506272989,-0.004583506370761836,-0.08936536530276484,0.0,0.0,0.13886799090238275,0.75,1.0,MANUAL_MODE,True,False,False,,,False,False,0,None,25.0,10.0
1765889814.9969735,27.12110996246338,-0.014308872585800683,-0.004833403641936012,-0.09030965679670544,0.0,0.0,0.2138679909023828,0.75,1.0,MANUAL_MODE,True,False,False,,,False,False,0,None,25.0,10.0
1765889815.1068537,27.230989933013916,-0.014051508942131573,-0.004987848827932033,-0.09319715688514307,0.0,0.0,0.1741968152649339,0.75,1.0,MANUAL_MODE,True,False,False,,,False,False,0,None,25.0,10.0
1765889815.2068954,27.331031560897827,-0.014844650691354766,-0.0052862307585690846,-0.09174749112877123,0.0,0.0,0.14935199448777267,0.75,1.0,MANUAL_MODE,True,False,False,,,False,False,0,None,25.0,10.0
1765889815.317021,27.441157341003418,-0.01413914614669265,-0.00521587997464745,-0.09148298655019538,0.0,0.0,0.12164813296025635,0.75,1.0,MANUAL_MODE,True,False,False,,,False,False,0,None,25.0,10.0
1765889815.4267926,27.550929307937622,-0.014120855320382703,-0.00521324135615155,-0.09207523438753462,0.0,0.0,0.0941290063671118,0.75,1.0,MANUAL_MODE,True,False,False,,,False,False,0,None,25.0,10.0
1765889815.5268347,27.650971174240112,-0.013993512742292913,-0.005705799917033008,-0.08943636702272073,0.0,0.0,0.08070385683400247,0.75,1.0,MANUAL_MODE,True,False,False,,,False,False,0,None,25.0,10.0
1765889815.6369834,27.761119604110718,-0.01389628058512868,-0.005425941811922821,-0.09266994257698613,0.0,0.0,0.06573379579040022,0.75,1.0,MANUAL_MODE,True,False,False,,,False,False,0,None,25.0,10.0
1765889815.746818,27.870954275131226,-0.013896166347027996,-0.005425604643497385,-0.09314017407288055,0.0,0.0,0.05354058750750466,0.75,1.0,MANUAL_MODE,True,False,False,,,False,False,0,None,25.0,10.0
1765889815.856936,27.981072187423706,-0.013656668822159664,-0.006519841974185406,-0.09262850715919058,0.0,0.0,0.04360914315353446,0.75,1.0,MANUAL_MODE,True,False,False,,,False,False,0,None,25.0,10.0
1765889815.9569511,28.081087350845337,-0.01365665298866785,-0.0065199143156337335,-0.092596098967336,0.0,0.0,-0.003571314004142262,0.75,1.0,MANUAL_MODE,True,False,False,,,False,False,0,None,25.0,10.0
1765889816.0569634,28.18109941482544,-0.014003748801636077,-0.005744832901479596,-0.09198941302698671,0.0,0.0,-0.04857131400414226,0.75,1.0,MANUAL_MODE,True,False,False,,,False,False,0,None,25.0,10.0
1765889816.1668048,28.29094099998474,-0.013662771965871545,-0.0064433054417800265,-0.09353039129004159,0.0,0.0,-0.05177923257708639,0.75,1.0,MANUAL_MODE,True,False,False,,,False,False,0,None,25.0,10.0
1765889816.2669773,28.391113758087158,-0.013662763355210137,-0.006443323080358642,-0.09356490155940556,0.0,0.0,-0.04439421953077943,0.75,1.0,MANUAL_MODE,True,False,False,,,False,False,0,None,25.0,10.0
1765889816.3769615,28.501097679138184,-0.013062725135263482,-0.006100430440250769,-0.09426076201943445,0.0,0.0,-0.03615936927169191,0.75,1.0,MANUAL_MODE,True,False,False,,,False,False,0,None,25.0,10.0
1765889816.476981,28.601117610931396,-0.013062722924706909,-0.00610042917702527,-0.09425541242785229,0.0,0.0,-0.029452032267851005,0.75,1.0,MANUAL_MODE,True,False,False,,,False,False,0,None,25.0,10.0
1765889816.5771306,28.70126700401306,-0.012410796581293971,-0.006268047879222863,-0.09680269140065256,0.0,0.0,-0.02525143616564875,0.75,1.0,MANUAL_MODE,True,False,False,,,False,False,0,None,25.0,10.0
1765889816.6868005,28.81093668937683,-0.012627185743324014,-0.006557662802726682,-0.09997235189901765,0.0,0.0,-0.02056745257839694,0.75,1.0,MANUAL_MODE,True,False,False,,,False,False,0,None,25.0,10.0
1765889816.7868023,28.91093873977661,-0.012627186047823157,-0.0065576632102632626,-0.0999461938694175,0.0,0.0,-0.016752318671682923,0.75,1.0,MANUAL_MODE,True,False,False,,,False,False,0,None,25.0,10.0
1765889816.8868442,29.010980367660522,-0.011652136675699264,-0.006465958668047958,-0.09602582241562452,0.0,-0.15,-0.014363019221134143,0.75,1.0,MANUAL_MODE,True,False,False,,,False,False,0,None,25.0,10.0
1765889816.9969437,29.12108039855957,-0.011808430066804442,-0.00656882659006112,-0.09585990109311382,0.0,0.0,-0.01169876892448389,0.75,1.0,MANUAL_MODE,True,False,False,,,False,False,0,None,25.0,10.0
1765889817.097961,29.222100734710693,-0.012305763114777055,-0.006504052832197711,-0.09486317524219423,0.0,0.0,0.0,0.75,1.0,MANUAL_MODE,True,False,False,,,False,False,0,None,25.0,10.0
1765889817.2067943,29.330930471420288,-0.01255343258804674,-0.006424728420687887,-0.09301461595615024,0.0,0.0,0.0,0.75,1.0,MANUAL_MODE,True,False,False,,,False,False,0,None,25.0,10.0
1765889817.3068159,29.430952072143555,-0.012973054825673711,-0.006745573329350296,-0.09340354975262599,0.0,0.0,0.0,0.75,1.0,MANUAL_MODE,True,False,False,,,False,False,0,None,25.0,10.0
1765889817.406825,29.530961275100708,-0.0126177313526315,-0.006463932753426577,-0.09079090277228552,0.0,0.0,0.0,0.75,1.0,MANUAL_MODE,True,False,False,,,False,False,0,None,25.0,10.0
1765889817.516942,29.64107894897461,-0.012544790497670183,-0.006406460709751525,-0.08713412672441656,0.0,0.0,0.0,0.75,1.0,MANUAL_MODE,True,False,False,,,False,False,0,None,25.0,10.0
1765889817.6169548,29.741091012954712,-0.012809874499378102,-0.00647405472973669,-0.08918626577776223,0.0,0.0,0.0,0.75,1.0,MANUAL_MODE,True,False,False,,,False,False,0,None,25.0,10.0
1765889817.7267997,29.85093593597412,-0.012815639861897097,-0.006475524845037479,-0.09003480706717149,0.0,-0.15,0.0,0.75,1.0,MANUAL_MODE,True,False,False,,,False,False,0,None,25.0,10.0
1765889817.8371463,29.96128273010254,-0.013498392260508812,-0.006514965884469466,-0.09005355040077845,0.0,-0.15,0.0,0.75,1.0,MANUAL_MODE,True,False,False,,,False,False,0,None,25.0,10.0
1765889817.9467123,30.0708487033844,-0.012555045001204008,-0.007535687948545822,-0.09100315479518883,0.0,0.0,0.0,0.75,1.0,MANUAL_MODE,True,False,False,,,False,False,0,None,25.0,10.0
1765889818.0569444,30.18108057975769,-0.012554617005790247,-0.007536150630038455,-0.09108105372669684,0.0,0.0,0.0,0.75,1.0,MANUAL_MODE,True,False,False,,,False,False,0,None,25.0,10.0
1765889818.1569479,30.281084537506104,-0.013432849775947867,-0.007112183269027209,-0.08768462948134648,0.0,-0.15,0.0,0.75,1.0,MANUAL_MODE,True,False,False,,,False,False,0,None,25.0,10.0
1765889818.2569509,30.38108730316162,-0.0134329078370547,-0.0071121552399954074,-0.08756751291925724,0.0,-0.15,0.0,0.75,1.0,MANUAL_MODE,True,False,False,,,False,False,0,None,25.0,10.0
1765889818.3666527,30.49078893661499,-0.013264204584589039,-0.006970794995056786,-0.08564907593709847,0.0,-0.15,0.0,0.75,1.0,MANUAL_MODE,True,False,False,,,False,False,0,None,25.0,10.0
1765889818.4666717,30.590807914733887,-0.013656517310095213,-0.007013108441966018,-0.08312993407949065,0.0,-0.15,0.0,0.75,1.0,MANUAL_MODE,True,False,False,,,False,False,0,None,25.0,10.0
1765889818.5768564,30.700992584228516,-0.013656527216586407,-0.007013109510521575,-0.0831185253202058,0.0,-0.15,0.0,0.75,1.0,MANUAL_MODE,True,False,False,,,False,False,0,None,25.0,10.0
1765889818.6868129,30.810949325561523,-0.013323117590838086,-0.007327202438304263,-0.0877040096317021,0.0,-0.15,0.0,0.75,1.0,MANUAL_MODE,True,False,False,,,False,False,0,None,25.0,10.0
1765889818.796891,30.921027421951294,-0.013498925306096128,-0.00731206794514486,-0.08773934636154834,0.0,-0.15,0.0,0.75,1.0,MANUAL_MODE,True,False,False,,,False,False,0,None,25.0,10.0
1765889818.9067478,31.030884265899658,-0.013840564503337495,-0.007513118673950913,-0.08609809564660509,0.0,-0.15,0.0,0.75,1.0,MANUAL_MODE,True,False,False,,,False,False,0,None,25.0,10.0
1765889819.0068693,31.13100552558899,-0.013880362886211788,-0.007549060054559093,-0.08414835255214825,0.0,-0.15,0.0,0.75,1.0,MANUAL_MODE,True,False,False,,,False,False,0,None,25.0,10.0
1765889819.1168811,31.24101734161377,-0.013957121918075162,-0.007334916002065555,-0.08585076025769212,0.0,-0.15,0.0,0.75,1.0,MANUAL_MODE,True,False,False,,,False,False,0,None,25.0,10.0
1765889819.2171078,31.341243982315063,-0.013917558626917036,-0.007940648269946723,-0.08576921306533336,0.0,-0.15,0.0,0.75,1.0,MANUAL_MODE,True,False,False,,,False,False,0,None,25.0,10.0
1765889819.3267903,31.450927019119263,-0.01391666184917293,-0.007953923749752905,-0.0854613775858688,0.0,-0.15,0.0,0.75,1.0,MANUAL_MODE,True,False,False,,,False,False,0,None,25.0,10.0
1765889819.4268093,31.55094575881958,-0.014018626705235635,-0.007856251985980944,-0.08823298140048941,0.0,-0.15,0.0,0.75,1.0,MANUAL_MODE,True,False,False,,,False,False,0,None,25.0,10.0
1765889819.5372763,31.661412715911865,-0.014019462538383926,-0.007855451344435459,-0.08894170379724997,0.0,-0.15,0.0,0.75,1.0,MANUAL_MODE,True,False,False,,,False,False,0,None,25.0,10.0
1765889819.6468117,31.77094793319702,-0.014855296435475448,-0.00752132523469777,-0.08816734244792457,0.0,-0.15,0.0,0.75,1.0,MANUAL_MODE,True,False,False,,,False,False,0,None,25.0,10.0
1765889819.746829,31.870965242385864,-0.015175454944096013,-0.0075071003036811515,-0.08684277572169563,0.0,-0.15,0.0,0.75,1.0,MANUAL_MODE,True,False,False,,,False,False,0,None,25.0,10.0
1765889819.846874,31.97101068496704,-0.015175599903280346,-0.007507093923969656,-0.08673761662263857,0.0,-0.15,0.0,0.75,1.0,MANUAL_MODE,True,False,False,,,False,False,0,None,25.0,10.0
1765889819.956946,32.0810821056366,-0.015280372767096111,-0.007164646117271945,-0.08991636508872602,0.0,-0.15,0.0,0.75,1.0,MANUAL_MODE,True,False,False,,,False,False,0,None,25.0,10.0
1765889820.0669672,32.19110345840454,-0.015280379693768244,-0.007164623477596031,-0.09002497880817728,0.0,-0.15,0.0,0.75,1.0,MANUAL_MODE,True,False,False,,,False,False,0,None,25.0,10.0
1765889820.1769943,32.30113077163696,-0.015383828543691368,-0.0071289840749616095,-0.08928579116615509,0.0,-0.15,0.0,0.75,1.0,MANUAL_MODE,True,False,False,,,False,False,0,None,25.0,10.0
1765889820.2867963,32.410932540893555,-0.015486878828294732,-0.007297940998019156,-0.08831929128527172,0.0,-0.15,0.0,0.75,1.0,MANUAL_MODE,True,False,False,,,False,False,0,None,25.0,10.0
1765889820.3868175,32.51095366477966,-0.015486878973303505,-0.007297941235770364,-0.08831106939029354,0.0,-0.15,0.0,0.75,1.0,MANUAL_MODE,True,False,False,,,False,False,0,None,25.0,10.0
1765889820.4868517,32.61098790168762,-0.015236594384559439,-0.007257817975883448,-0.0886703440645924,0.0,-0.15,0.0,0.75,1.0,MANUAL_MODE,True,False,False,,,False,False,0,None,25.0,10.0
1765889820.5972838,32.72142004966736,-0.01576304115049691,-0.007413161490012687,-0.08820413158254681,0.0,-0.15,0.0,0.75,1.0,MANUAL_MODE,True,False,False,,,False,False,0,None,25.0,10.0
1765889820.7068174,32.83095359802246,-0.016236496641065693,-0.007425280874041761,-0.08591433734505927,0.0,-0.15,0.0,0.75,1.0,MANUAL_MODE,True,False,False,,,False,False,0,None,25.0,10.0
1765889820.8169537,32.94108963012695,-0.01626179406932448,-0.007410951079081686,-0.08485793674239517,0.0,-0.15,0.0,0.75,1.0,MANUAL_MODE,True,False,False,,,False,False,0,None,25.0,10.0
1765889820.91719,33.04132628440857,-0.015926496856681127,-0.007714402619583588,-0.08147967676445766,0.0,-0.15,0.0,0.75,1.0,MANUAL_MODE,True,False,False,,,False,False,0,None,25.0,10.0
1765889821.026798,33.15093421936035,-0.0156594067781306,-0.007846492478660044,-0.08335178240404062,0.0,-0.15,0.0,0.75,1.0,MANUAL_MODE,True,False,False,,,False,False,0,None,25.0,10.0
1765889821.126968,33.25110411643982,-0.015657277147033476,-0.007847521154851638,-0.08422620942457293,0.0,-0.15,0.0,0.75,1.0,MANUAL_MODE,True,False,False,,,False,False,0,None,25.0,10.0
1765889821.2368228,33.36095905303955,-0.015903992978985457,-0.007953476309371689,-0.0874413331320465,0.0,-0.15,0.0,0.75,1.0,MANUAL_MODE,True,False,False,,,False,False,0,None,25.0,10.0
1765889821.3369465,33.46108293533325,-0.015904285990919035,-0.007953602146956357,-0.0878123386399654,0.0,-0.15,0.0,0.75,1.0,MANUAL_MODE,True,False,False,,,False,False,0,None,25.0,10.0
1765889821.446798,33.5709342956543,-0.015468868725806552,-0.007918238630280513,-0.08998729951159845,0.0,-0.15,0.0,0.75,1.0,MANUAL_MODE,True,False,False,,,False,False,0,None,25.0,10.0
1765889821.5468082,33.67094445228577,-0.014818953648702938,-0.007616205974272945,-0.09165762620311568,0.0,-0.15,0.0,0.75,1.0,MANUAL_MODE,True,False,False,,,False,False,0,None,25.0,10.0
1765889821.646815,33.77095150947571,-0.014818659125712548,-0.007616069067407979,-0.09173599595593629,0.0,-0.15,0.0,0.75,1.0,MANUAL_MODE,True,False,False,,,False,False,0,None,25.0,10.0
1765889821.7469819,33.87111806869507,-0.01566327934638927,-0.007191750018173194,-0.08905218938930304,0.0,-0.15,0.0,0.75,1.0,MANUAL_MODE,True,False,False,,,False,False,0,None,25.0,10.0
1765889821.8569436,33.981080055236816,-0.015663662220518047,-0.007191557670438361,-0.0888158072526739,0.0,-0.15,0.0,0.75,1.0,MANUAL_MODE,True,False,False,,,False,False,0,None,25.0,10.0
1765889821.9571211,34.081257343292236,-0.014873039015249946,-0.0073710442031150085,-0.09116607223034201,0.0,-0.15,0.0,0.75,1.0,MANUAL_MODE,True,False,False,,,False,False,0,None,25.0,10.0
1765889822.0668235,34.19095993041992,-0.016274540422690838,-0.006916566605022291,-0.08835846254173063,0.0,-0.15,0.0,0.75,1.0,MANUAL_MODE,True,False,False,,,False,False,0,None,25.0,10.0
1765889822.176947,34.30108332633972,-0.016274575813659542,-0.006916555128598566,-0.08827996390467518,0.0,-0.15,0.0,0.75,1.0,MANUAL_MODE,True,False,False,,,False,False,0,None,25.0,10.0
1765889822.276959,34.401095151901245,-0.015105882359910307,-0.0073861745580484,-0.09140716793505632,0.0,-0.15,0.0,0.75,1.0,MANUAL_MODE,True,False,False,,,False,False,0,None,25.0,10.0
1765889822.3868048,34.51094102859497,-0.01468661940644754,-0.007294755884706408,-0.09071837156077223,0.0,-0.15,0.0,0.75,1.0,MANUAL_MODE,True,False,False,,,False,False,0,None,25.0,10.0
1765889822.4969852,34.621121883392334,-0.01460728367098089,-0.007448843453107127,-0.09000893178487424,0.0,-0.15,0.0,0.75,1.0,MANUAL_MODE,True,False,False,,,False,False,0,None,25.0,10.0
1765889822.597001,34.72113752365112,-0.014558251880915129,-0.007544074835942784,-0.08796023951480691,0.0,-0.15,0.0,0.75,1.0,MANUAL_MODE,True,False,False,,,False,False,0,None,25.0,10.0
1765889822.6971474,34.82128429412842,-0.01502397076526066,-0.007549540890606883,-0.0884603097261305,0.0,-0.15,0.0,0.75,1.0,MANUAL_MODE,True,False,False,,,False,False,0,None,25.0,10.0
1765889822.8068295,34.93096590042114,-0.015597943025847289,-0.007171755129348572,-0.08837235877692606,0.0,-0.15,0.0,0.75,1.0,MANUAL_MODE,True,False,False,,,False,False,0,None,25.0,10.0
