timestamp,time,x,y,th,v,u,delta,v_ref,yolo_gain,state,gps_valid,platoon_enabled,platoon_is_leader,platoon_position,platoon_leader_id,platoon_setup_complete,v2v_active,v2v_peers,v2v_protocol,v2v_local_rate,v2v_fleet_rate
1765888655.151492,2.0262696743011475,0.0,0.0,0.0,0.0,0.0,0.0,0.75,1.0,INITIALIZING,False,False,False,,,False,False,0,None,25.0,10.0
1765888655.4545465,2.3293237686157227,-0.0725911752624114,-0.0009297230287797245,0.10123730605118908,0.0,0.0,0.0,0.75,1.0,WAITING_FOR_START,True,False,False,,,False,False,0,None,25.0,10.0
1765888655.5563266,2.4311039447784424,-0.07213535951220577,-0.0013720464991794185,0.10228251003205369,0.0,0.0,0.0,0.75,1.0,WAITING_FOR_START,True,False,False,,,False,False,0,None,25.0,10.0
1765888655.6663418,2.541119337081909,-0.07250208658144826,-0.0011496299346950647,0.10415577762261119,0.0,0.0,0.0,0.75,1.0,WAITING_FOR_START,True,False,False,,,False,False,0,None,25.0,10.0
1765888655.7693405,2.644118547439575,-0.07233533873174465,-0.0008513076684957593,0.09932779049830476,0.0,0.0,0.0,0.75,1.0,WAITING_FOR_START,True,False,False,,,False,False,0,None,25.0,10.0
1765888655.8761947,2.750972032546997,-0.07209898876877244,-0.0012676340396633795,0.10071084600682134,0.0,0.0,0.0,0.75,1.0,WAITING_FOR_START,True,False,False,,,False,False,0,None,25.0,10.0
1765888655.976244,2.8510210514068604,-0.07195291659231981,-0.001524937848258343,0.10488843748665744,0.0,0.0,0.0,0.75,1.0,WAITING_FOR_START,True,False,False,,,False,False,0,None,25.0,10.0
1765888656.0864327,2.961210250854492,-0.0721162230458421,-0.00174130542118055,0.10305192512384753,0.0,0.0,0.0,0.75,1.0,WAITING_FOR_START,True,False,False,,,False,False,0,None,25.0,10.0
1765888656.196173,3.070950508117676,-0.07215242191470347,-0.0015962101612271161,0.10393586439191616,0.0,0.0,0.0,0.75,1.0,WAITING_FOR_START,True,False,False,,,False,False,0,None,25.0,10.0
1765888656.3072736,3.182051181793213,-0.07215299959721953,-0.0015927767359056005,0.10477283140105698,0.0,0.0,0.0,0.75,1.0,WAITING_FOR_START,True,False,False,,,False,False,0,None,25.0,10.0
1765888656.4161508,3.2909281253814697,-0.07198204945873894,-0.0010219905241394675,0.10203063840558624,0.0,0.0,0.0,0.75,1.0,WAITING_FOR_START,True,False,False,,,False,False,0,None,25.0,10.0
1765888656.5268097,3.4015886783599854,-0.0719815168986796,-0.0010202123568838653,0.10155428499067742,0.0,0.0,0.0,0.75,1.0,WAITING_FOR_START,True,False,False,,,False,False,0,None,25.0,10.0
1765888656.6268919,3.5016696453094482,-0.07157503784371402,-0.0006704424693498692,0.09687073734525065,0.0,0.0,0.0,0.75,1.0,WAITING_FOR_START,True,False,False,,,False,False,0,None,25.0,10.0
1765888656.736112,3.610889434814453,-0.07191182935805905,-7.061571368296602e-05,0.10063701522009705,0.0,0.0,0.0,0.75,1.0,WAITING_FOR_START,True,False,False,,,False,False,0,None,25.0,10.0
1765888656.8465326,3.7213096618652344,-0.07191185163593673,-7.057606879008322e-05,0.10083263239559237,0.0,0.0,0.0,0.75,1.0,WAITING_FOR_START,True,False,False,,,False,False,0,None,25.0,10.0
1765888656.9465358,3.8213133811950684,-0.07275817209600076,-0.00024240634861659354,0.0977843428635694,0.0,0.0,0.0,0.75,1.0,WAITING_FOR_START,True,False,False,,,False,False,0,None,25.0,10.0
1765888657.0564778,3.931260108947754,-0.0724794746885374,-0.00046711006881872775,0.0925731275993833,0.0,0.0,0.0,0.75,1.0,WAITING_FOR_START,True,False,False,,,False,False,0,None,25.0,10.0
1765888657.1565685,4.031350374221802,-0.07247947200030934,-0.00046711223603695365,0.09254168601310298,0.0,0.0,0.0,0.75,1.0,WAITING_FOR_START,True,False,False,,,False,False,0,None,25.0,10.0
1765888657.2664254,4.141202449798584,-0.07235170155515244,-9.521788470525974e-05,0.0967693101185958,0.0,0.0,0.0,0.75,1.0,WAITING_FOR_START,True,False,False,,,False,False,0,None,25.0,10.0
1765888657.36651,4.241286993026733,-0.07235170148647704,-9.521768481557895e-05,0.09680811145643897,0.0,0.0,0.0,0.75,1.0,WAITING_FOR_START,True,False,False,,,False,False,0,None,25.0,10.0
1765888657.4764423,4.35122013092041,-0.07156293603064275,-0.0003348519529783583,0.09576649771208423,0.0,0.0,0.0,0.75,1.0,WAITING_FOR_START,True,False,False,,,False,False,0,None,25.0,10.0
1765888657.5767539,4.451531171798706,-0.07161465914880845,-2.1021636642928508e-05,0.0960393084075255,0.0,0.0,0.0,0.75,1.0,WAITING_FOR_START,True,False,False,,,False,False,0,None,25.0,10.0
1765888657.686437,4.561213970184326,-0.0720484212422891,-0.00031534184918741056,0.0931214610300497,0.0,0.0,0.0,0.75,1.0,WAITING_FOR_START,True,False,False,,,False,False,0,None,25.0,10.0
1765888657.7869294,4.6617066860198975,-0.0721225166090999,-0.0003656177454269558,0.08963400117290732,0.0,0.0,0.0,0.75,1.0,WAITING_FOR_START,True,False,False,,,False,False,0,None,25.0,10.0
1765888657.8871417,4.761919975280762,-0.0715894813918275,-2.048765655909203e-06,0.09183645795775686,0.0,0.0,0.0,0.75,1.0,WAITING_FOR_START,True,False,False,,,False,False,0,None,25.0,10.0
1765888657.9961557,4.8709330558776855,-0.07168437294698597,7.015614532290261e-05,0.09157281647278559,0.0,0.0,0.0,0.75,1.0,WAITING_FOR_START,True,False,False,,,False,False,0,None,25.0,10.0
1765888658.096185,4.970962762832642,-0.07169534682730343,7.07522248526377e-05,0.08969440346540214,0.0,0.0,0.0,0.75,1.0,WAITING_FOR_START,True,False,False,,,False,False,0,None,25.0,10.0
1765888658.1962373,5.071014642715454,-0.07200994555779477,-0.0004358166484723794,0.09433020326292674,0.0,0.0,0.0,0.75,1.0,WAITING_FOR_START,True,False,False,,,False,False,0,None,25.0,10.0
1765888658.306565,5.1813435554504395,-0.07201678782618748,-0.00044683411269557993,0.09618597754400326,0.0,0.0,0.0,0.75,1.0,WAITING_FOR_START,True,False,False,,,False,False,0,None,25.0,10.0
1765888658.407703,5.282481908798218,-0.07166838484898827,-0.0006106311289412584,0.09518205122139456,0.0,0.0,0.0,0.75,1.0,WAITING_FOR_START,True,False,False,,,False,False,0,None,25.0,10.0
1765888658.5161765,5.390953540802002,-0.07079454508254054,-0.0011641597723110097,0.08999276621283858,0.0,0.0,0.0,0.75,1.0,WAITING_FOR_START,True,False,False,,,False,False,0,None,25.0,10.0
1765888658.6162078,5.490984916687012,-0.07079350855601235,-0.0011648165643983522,0.08941043023670936,0.0,0.0,0.0,0.75,1.0,WAITING_FOR_START,True,False,False,,,False,False,0,None,25.0,10.0
1765888658.7270393,5.601816654205322,-0.0716393861419019,-0.000636649782595984,0.09421129078873314,0.0,0.0,0.0,0.75,1.0,WAITING_FOR_START,True,False,False,,,False,False,0,None,25.0,10.0
1765888658.836106,5.710883140563965,-0.0716395325634768,-0.0006365583568231705,0.09448630714040451,0.0,0.0,0.0,0.75,1.0,WAITING_FOR_START,True,False,False,,,False,False,0,None,25.0,10.0
1765888658.9465668,5.821344375610352,-0.07072895048048937,-0.0013742544697725044,0.09163930857212943,0.0,0.0,0.0,0.75,1.0,WAITING_FOR_START,True,False,False,,,False,False,0,None,25.0,10.0
1765888659.0466962,5.921473503112793,-0.07041992622860281,-0.0011470145409093312,0.08638267455861204,0.0,0.0,0.0,0.75,1.0,WAITING_FOR_START,True,False,False,,,False,False,0,None,25.0,10.0
1765888659.1481118,6.022889137268066,-0.07041991842592663,-0.0011470088023598111,0.08628913186248521,0.0,0.0,0.0,0.75,1.0,WAITING_FOR_START,True,False,False,,,False,False,0,None,25.0,10.0
1765888659.2562845,6.131062030792236,-0.06991181198656274,-0.001089561027444389,0.09084062176559016,0.0,0.0,0.0,0.75,1.0,WAITING_FOR_START,True,False,False,,,False,False,0,None,25.0,10.0
1765888659.3564618,6.231238842010498,-0.0700252890951053,-0.0003415242886082304,0.09253557923959743,0.0,0.0,0.0,0.75,1.0,WAITING_FOR_START,True,False,False,,,False,False,0,None,25.0,10.0
1765888659.4570575,6.33183741569519,-0.07002528951316385,-0.00034152153282188927,0.0925351079774055,0.0,0.0,0.0,0.75,1.0,WAITING_FOR_START,True,False,False,,,False,False,0,None,25.0,10.0
1765888659.5666726,6.441450119018555,-0.07047046843491966,-0.0007170488917334611,0.0892464905180006,0.0,0.0,0.0,0.75,1.0,WAITING_FOR_START,True,False,False,,,False,False,0,None,25.0,10.0
1765888659.6762624,6.5510406494140625,-0.07047046906136213,-0.000717049420164328,0.08922933179040449,0.0,0.0,0.0,0.75,1.0,WAITING_FOR_START,True,False,False,,,False,False,0,None,25.0,10.0
1765888659.7863824,6.661159992218018,-0.07015959327940804,-0.000838163930953206,0.09262031892373912,0.0,0.0,0.0,0.75,1.0,WAITING_FOR_START,True,False,False,,,False,False,0,None,25.0,10.0
1765888659.886417,6.7611939907073975,-0.07014158659372322,-0.0008586736996668381,0.09180629351877645,0.0,0.0,0.0,0.75,1.0,WAITING_FOR_START,True,False,False,,,False,False,0,None,25.0,10.0
1765888659.986791,6.861567974090576,-0.07040885349480788,-0.0009995333340689487,0.08810795644327207,0.0,0.0,0.0,0.75,1.0,WAITING_FOR_START,True,False,False,,,False,False,0,None,25.0,10.0
1765888660.0961802,6.9709577560424805,-0.07042462678133868,-0.0010078464439628215,0.08571652933869434,0.0,0.0,0.0,0.75,1.0,WAITING_FOR_START,True,False,False,,,False,False,0,None,25.0,10.0
1765888660.2068563,7.081637144088745,-0.07079643533081968,-0.0012663559688906787,0.09126513305880657,0.0,0.0,0.0,0.75,1.0,WAITING_FOR_START,True,False,False,,,False,False,0,None,25.0,10.0
1765888660.3161268,7.190904140472412,-0.07131637203106855,-0.0012474677791413883,0.0936043551781145,0.0,0.0,0.0,0.75,1.0,WAITING_FOR_START,True,False,False,,,False,False,0,None,25.0,10.0
1765888660.4161627,7.290940284729004,-0.07131698815821756,-0.0012474443903041689,0.09373279351268238,0.0,0.0,0.0,0.75,1.0,WAITING_FOR_START,True,False,False,,,False,False,0,None,25.0,10.0
1765888660.527339,7.402118444442749,-0.07087061809069763,-0.0007019641062295808,0.0870979781999246,0.0,0.0,0.0,0.75,1.0,WAITING_FOR_START,True,False,False,,,False,False,0,None,25.0,10.0
1765888660.6361315,7.510908842086792,-0.07087054082395199,-0.0007018696834862167,0.08673411754449845,0.0,0.0,0.0,0.75,1.0,WAITING_FOR_START,True,False,False,,,False,False,0,None,25.0,10.0
1765888660.7361357,7.610912799835205,-0.07107725204627718,-0.0009652915091436094,0.0932347075699349,0.0,0.0,0.0,0.75,1.0,WAITING_FOR_START,True,False,False,,,False,False,0,None,25.0,10.0
1765888660.8465483,7.721325635910034,-0.07089368876259308,-0.0017068330552864608,0.09287150281099343,0.0,0.0,0.0,0.75,1.0,WAITING_FOR_START,True,False,False,,,False,False,0,None,25.0,10.0
1765888660.9563184,7.831096172332764,-0.07089368412704766,-0.00170685177969516,0.09282116140785135,0.0,0.0,0.0,0.75,1.0,WAITING_FOR_START,True,False,False,,,False,False,0,None,25.0,10.0
1765888661.0563643,7.93114161491394,-0.07077283479063275,-0.001171895375478329,0.08986786114457068,0.0,0.0,0.0,0.75,1.0,WAITING_FOR_START,True,False,False,,,False,False,0,None,25.0,10.0
1765888661.1564813,8.031260013580322,-0.07027488004168427,-0.0014827650746097774,0.09493271484870736,0.0,0.0,0.0,0.75,1.0,WAITING_FOR_START,True,False,False,,,False,False,0,None,25.0,10.0
1765888661.2564945,8.131274223327637,-0.0702748752389395,-0.001482768072983676,0.09500854864957375,0.0,0.0,0.0,0.75,1.0,WAITING_FOR_START,True,False,False,,,False,False,0,None,25.0,10.0
1765888661.3571324,8.231910228729248,-0.07090944886717317,-0.0010810503594672106,0.09189902607509381,0.0,0.0,0.0,0.75,1.0,WAITING_FOR_START,True,False,False,,,False,False,0,None,25.0,10.0
1765888661.466366,8.341143131256104,-0.07090945120496017,-0.0010810488795279158,0.09185808268738072,0.0,0.0,0.0,0.75,1.0,WAITING_FOR_START,True,False,False,,,False,False,0,None,25.0,10.0
1765888661.5665803,8.441357851028442,-0.07090375834819859,-0.0009649048599513073,0.0979498330197206,0.0,0.0,0.0,0.75,1.0,WAITING_FOR_START,True,False,False,,,False,False,0,None,25.0,10.0
1765888661.6766064,8.55138373374939,-0.07062418045924085,-0.0009335054363866956,0.09370440433679494,0.0,0.0,0.0,0.75,1.0,WAITING_FOR_START,True,False,False,,,False,False,0,None,25.0,10.0
1765888661.786356,8.661133289337158,-0.07027420575517927,-0.0012232620482924468,0.0925480171790829,0.0,0.0,0.0,0.75,1.0,WAITING_FOR_START,True,False,False,,,False,False,0,None,25.0,10.0
1765888661.886554,8.761331558227539,-0.07025355131452735,-0.0012403626038164479,0.09181652500088422,0.0,0.0,0.0,0.75,1.0,WAITING_FOR_START,True,False,False,,,False,False,0,None,25.0,10.0
1765888661.9962842,8.8710618019104,-0.07022531492219539,-0.0010511503318036757,0.0942153218345192,0.0,0.0,0.0,0.75,1.0,WAITING_FOR_START,True,False,False,,,False,False,0,None,25.0,10.0
1765888662.1063418,8.981120109558105,-0.07029817591751657,-0.0014045272524553184,0.09430660114165246,0.0,0.0,0.0,0.75,1.0,WAITING_FOR_START,True,False,False,,,False,False,0,None,25.0,10.0
1765888662.20672,9.081499814987183,-0.07029840809216013,-0.001405662911987432,0.09403435925928694,0.0,0.0,0.0,0.75,1.0,WAITING_FOR_START,True,False,False,,,False,False,0,None,25.0,10.0
1765888662.3068008,9.181579828262329,-0.07005141364212614,-0.00153261240958803,0.09009227038855361,0.0,0.0,0.0,0.75,1.0,WAITING_FOR_START,True,False,False,,,False,False,0,None,25.0,10.0
1765888662.4161196,9.290896654129028,-0.07005064418172395,-0.0015330078946321217,0.08942022267086003,0.0,0.0,0.0,0.75,1.0,WAITING_FOR_START,True,False,False,,,False,False,0,None,25.0,10.0
1765888662.5161512,9.390928506851196,-0.07058622959098214,-0.0020227123206088293,0.09465788387997875,0.0,0.0,0.0,0.75,1.0,WAITING_FOR_START,True,False,False,,,False,False,0,None,25.0,10.0
1765888662.616154,9.490931510925293,-0.07050978706038201,-0.0015825688166762127,0.0909422621918603,0.0,0.0,0.0,0.75,1.0,WAITING_FOR_START,True,False,False,,,False,False,0,None,25.0,10.0
1765888662.7273524,9.602131366729736,-0.07050969551830004,-0.0015820453898065185,0.09041976307049193,0.0,0.0,0.0,0.75,1.0,WAITING_FOR_START,True,False,False,,,False,False,0,None,25.0,10.0
1765888662.8361177,9.71089482307434,-0.07082425040697407,-0.002033684504490539,0.0961063845621819,0.0,0.0,0.0,0.75,1.0,WAITING_FOR_START,True,False,False,,,False,False,0,None,25.0,10.0
1765888662.9361193,9.810896396636963,-0.07084827543743524,-0.0019378445641601587,0.09211629979191471,0.0,0.0,0.0,0.75,1.0,WAITING_FOR_START,True,False,False,,,False,False,0,None,25.0,10.0
1765888663.0471137,9.921891689300537,-0.07084827702439822,-0.0019378382260966305,0.09193452855757389,0.0,0.0,0.0,0.75,1.0,WAITING_FOR_START,True,False,False,,,False,False,0,None,25.0,10.0
1765888663.1478844,10.022661447525024,-0.07064174314854271,-0.0020967739379960486,0.09604754027222295,0.0,0.0,0.0,0.75,1.0,WAITING_FOR_START,True,False,False,,,False,False,0,None,25.0,10.0
1765888663.2561216,10.130898714065552,-0.07064174115653034,-0.0020967754709257007,0.096096774943768,0.0,0.0,0.0,0.75,1.0,WAITING_FOR_START,True,False,False,,,False,False,0,None,25.0,10.0
1765888663.3563106,10.231088876724243,-0.07080636559792139,-0.001958314342118625,0.09361931185501327,0.0,0.0,0.0,0.75,1.0,WAITING_FOR_START,True,False,False,,,False,False,0,None,25.0,10.0
1765888663.4563937,10.331171035766602,-0.07054949249860636,-0.001946213987887792,0.09016288363356129,0.0,0.0,0.0,0.75,1.0,WAITING_FOR_START,True,False,False,,,False,False,0,None,25.0,10.0
1765888663.5565958,10.431374311447144,-0.07054949002106023,-0.0019462138711924795,0.09012747589307146,0.0,0.0,0.0,0.75,1.0,WAITING_FOR_START,True,False,False,,,False,False,0,None,25.0,10.0
1765888663.6665084,10.541285991668701,-0.07027991053316465,-0.0022926662824690894,0.0955936988923618,0.0,0.0,0.0,0.75,1.0,WAITING_FOR_START,True,False,False,,,False,False,0,None,25.0,10.0
1765888663.7764697,10.65124773979187,-0.07027991015382047,-0.0022926667699865594,0.09562153597532497,0.0,0.0,0.0,0.75,1.0,WAITING_FOR_START,True,False,False,,,False,False,0,None,25.0,10.0
1765888663.8767364,10.751518726348877,-0.07083855934149347,-0.0023378704791830037,0.09311905114347674,0.0,0.0,0.0,0.75,1.0,WAITING_FOR_START,True,False,False,,,False,False,0,None,25.0,10.0
1765888663.9770186,10.851798057556152,-0.07078153288252151,-0.0023867519353567707,0.0902540374280223,0.0,0.0,0.0,0.75,1.0,WAITING_FOR_START,True,False,False,,,False,False,0,None,25.0,10.0
1765888664.0863993,10.96117639541626,-0.07093023558031157,-0.0029810031677777863,0.09428906284418748,0.0,0.0,0.0,0.75,1.0,WAITING_FOR_START,True,False,False,,,False,False,0,None,25.0,10.0
1765888664.1864533,11.061230421066284,-0.07093901156368253,-0.0030160740690180258,0.09692200355801361,0.0,0.0,0.0,0.75,1.0,WAITING_FOR_START,True,False,False,,,False,False,0,None,25.0,10.0
1765888664.2962115,11.1709885597229,-0.0720930958898169,-0.0030925039076205017,0.09496989762428054,0.0,0.0,0.0,0.75,1.0,WAITING_FOR_START,True,False,False,,,False,False,0,None,25.0,10.0
1765888664.396321,11.271098852157593,-0.07225224287587266,-0.0035368774976382413,0.09976091156260125,0.0,0.0,0.0,0.75,1.0,WAITING_FOR_START,True,False,False,,,False,False,0,None,25.0,10.0
1765888664.5062757,11.381052732467651,-0.07225515829463294,-0.0035465061121426594,0.1019601004653703,0.0,0.0,0.0,0.75,1.0,WAITING_FOR_START,True,False,False,,,False,False,0,None,25.0,10.0
1765888664.6063979,11.481175184249878,-0.07193098923577894,-0.0027429221326947077,0.09955942569605902,0.0,0.0,0.0,0.75,1.0,WAITING_FOR_START,True,False,False,,,False,False,0,None,25.0,10.0
1765888664.7064137,11.581190824508667,-0.07212501665622835,-0.00324924602329777,0.09398809261317886,0.0,0.0,0.0,0.75,1.0,MANUAL_MODE,True,False,False,,,False,False,0,None,25.0,10.0
1765888664.806574,11.68135142326355,-0.07212562425407892,-0.00325083116818192,0.09310288077994944,0.0,0.0,0.0,0.75,1.0,MANUAL_MODE,True,False,False,,,False,False,0,None,25.0,10.0
1765888664.9066713,11.781448364257812,-0.07160832956409685,-0.0030985565997503866,0.09791210935108641,0.0,0.0,0.0,0.75,1.0,MANUAL_MODE,True,False,False,,,False,False,0,None,25.0,10.0
1765888665.016212,11.890989303588867,-0.0716067180388978,-0.003098082219652987,0.09875905455205469,0.0,0.0,0.0,0.75,1.0,MANUAL_MODE,True,False,False,,,False,False,0,None,25.0,10.0
1765888665.1162398,11.99101734161377,-0.07210982395605582,-0.003411577795613183,0.09471548996575585,0.0,0.0,0.0,0.75,1.0,MANUAL_MODE,True,False,False,,,False,False,0,None,25.0,10.0
1765888665.2279437,12.102720975875854,-0.07188166644903404,-0.0032642156948174974,0.09722167055685826,0.0,0.0,0.0,0.75,1.0,MANUAL_MODE,True,False,False,,,False,False,0,None,25.0,10.0
1765888665.3289104,12.203688144683838,-0.07188156231282244,-0.0032641484516109293,0.09749624914366084,0.0,0.0,0.0,0.75,1.0,MANUAL_MODE,True,False,False,,,False,False,0,None,25.0,10.0
1765888665.4361308,12.310908079147339,-0.07309415007582146,-0.0035255154366633148,0.09612528563447853,0.0,0.0,0.0,0.75,1.0,MANUAL_MODE,True,False,False,,,False,False,0,None,25.0,10.0
1765888665.5364742,12.411251783370972,-0.07309435997492959,-0.003525560679324287,0.09604735403219777,0.0,0.0,0.0,0.75,1.0,MANUAL_MODE,True,False,False,,,False,False,0,None,25.0,10.0
1765888665.647555,12.522332906723022,-0.072366043654762,-0.0036283140750803,0.09655061143490151,0.0,0.0,0.0,0.75,1.0,MANUAL_MODE,True,False,False,,,False,False,0,None,25.0,10.0
1765888665.756126,12.630903005599976,-0.07213012150737462,-0.002691285368910523,0.09294995621806645,0.0,0.0,0.0,0.75,1.0,MANUAL_MODE,True,False,False,,,False,False,0,None,25.0,10.0
1765888665.8561532,12.730930805206299,-0.07213011923208772,-0.002691276331278343,0.092905838249151,0.0,0.0,0.0,0.75,1.0,MANUAL_MODE,True,False,False,,,False,False,0,None,25.0,10.0
1765888665.966577,12.841354608535767,-0.07157873427738567,-0.003060386984291702,0.08930759541514899,0.0,0.0,0.0,0.75,1.0,MANUAL_MODE,True,False,False,,,False,False,0,None,25.0,10.0
1765888666.076313,12.951090812683105,-0.07157873350149326,-0.003060387503693172,0.08933026177905123,0.0,0.0,0.0,0.75,1.0,MANUAL_MODE,True,False,False,,,False,False,0,None,25.0,10.0
1765888666.1863856,13.061162948608398,-0.07119691190310884,-0.0033510668730753206,0.093221556448702,0.0,0.0,0.0,0.75,1.0,MANUAL_MODE,True,False,False,,,False,False,0,None,25.0,10.0
1765888666.29675,13.17152738571167,-0.07113688817851184,-0.0033703289949317764,0.0929529415254633,0.0,0.0,0.0,0.75,1.0,MANUAL_MODE,True,False,False,,,False,False,0,None,25.0,10.0
1765888666.396947,13.271726846694946,-0.07180480645287125,-0.0036337710497634785,0.09096698286537652,0.0,0.0,0.0,0.75,1.0,MANUAL_MODE,True,False,False,,,False,False,0,None,25.0,10.0
1765888666.5065029,13.381280183792114,-0.07217226581179907,-0.003148675397635311,0.09225015972215722,0.0,0.0,0.0,0.75,1.0,MANUAL_MODE,True,False,False,,,False,False,0,None,25.0,10.0
1765888666.6161926,13.490969896316528,-0.0721749548528283,-0.0031445714933344394,0.09293379742566898,0.0,0.0,0.0,0.75,1.0,MANUAL_MODE,True,False,False,,,False,False,0,None,25.0,10.0
1765888666.7161999,13.590977191925049,-0.0721478598701384,-0.0024306430941780353,0.09191101504557153,0.0,0.0,0.0,0.75,1.0,MANUAL_MODE,True,False,False,,,False,False,0,None,25.0,10.0
1765888666.8162642,13.691041469573975,-0.07214782769079534,-0.0024297951974792294,0.09178750027689642,0.0,0.0,0.0,0.75,1.0,MANUAL_MODE,True,False,False,,,False,False,0,None,25.0,10.0
1765888666.9267347,13.801512002944946,-0.07183952173190893,-0.0025789390529950803,0.08819075381168506,0.0,0.0,0.0,0.75,1.0,MANUAL_MODE,True,False,False,,,False,False,0,None,25.0,10.0
1765888667.0361428,13.910919904708862,-0.07282644533400026,-0.0028191266711416114,0.09234843292299111,0.0,0.0,0.0,0.75,1.0,MANUAL_MODE,True,False,False,,,False,False,0,None,25.0,10.0
1765888667.1361833,14.010960340499878,-0.07282651058431615,-0.0028191425485549035,0.09253072334445989,0.0,0.0,0.0,0.75,1.0,MANUAL_MODE,True,False,False,,,False,False,0,None,25.0,10.0
1765888667.2368023,14.11158037185669,-0.07289552800514129,-0.003252490997231229,0.0908162018909886,0.0,0.0,0.0,0.75,1.0,MANUAL_MODE,True,False,False,,,False,False,0,None,25.0,10.0
1765888667.3473127,14.222090482711792,-0.07289553995207178,-0.0032525660099415746,0.090720064308492,0.0,0.0,0.0,0.75,1.0,MANUAL_MODE,True,False,False,,,False,False,0,None,25.0,10.0
1765888667.4561362,14.330913305282593,-0.0727658848897073,-0.003657508903008683,0.0851963941203362,0.0,0.0,0.0,0.75,1.0,MANUAL_MODE,True,False,False,,,False,False,0,None,25.0,10.0
1765888667.556143,14.430920124053955,-0.07329232497640371,-0.00346113489096736,0.09023078774195437,0.0,0.0,0.0,0.75,1.0,MANUAL_MODE,True,False,False,,,False,False,0,None,25.0,10.0
1765888667.6562204,14.530997514724731,-0.07329232691582434,-0.003461134167515644,0.09031218331802826,0.0,0.0,0.0,0.75,1.0,MANUAL_MODE,True,False,False,,,False,False,0,None,25.0,10.0
1765888667.7665067,14.641284465789795,-0.07410399818382671,-0.003343667357319778,0.09350240383697539,0.0,0.0,0.0,0.75,1.0,MANUAL_MODE,True,False,False,,,False,False,0,None,25.0,10.0
1765888667.8671944,14.741985082626343,-0.0741039986200923,-0.0033436672941824837,0.09349129132862899,0.0,0.0,0.0,0.75,1.0,MANUAL_MODE,True,False,False,,,False,False,0,None,25.0,10.0
1765888667.9764292,14.85120964050293,-0.07331154637910745,-0.0027832436626286797,0.08865337982070098,0.0,0.0,0.0,0.75,1.0,MANUAL_MODE,True,False,False,,,False,False,0,None,25.0,10.0
1765888668.0765824,14.95136308670044,-0.07325110275026513,-0.0027989210570970925,0.09280049495504183,0.0,0.0,0.0,0.75,1.0,MANUAL_MODE,True,False,False,,,False,False,0,None,25.0,10.0
1765888668.186853,15.061631202697754,-0.07400528345773266,-0.0025797227533837035,0.09380404787833463,0.0,0.0,0.0,0.75,1.0,MANUAL_MODE,True,False,False,,,False,False,0,None,25.0,10.0
1765888668.296544,15.171321392059326,-0.07327141098167195,-0.002539948755016986,0.09054355149465021,0.0,0.0,0.0,0.75,1.0,MANUAL_MODE,True,False,False,,,False,False,0,None,25.0,10.0
1765888668.4064004,15.28117823600769,-0.07325448181157337,-0.0025393650567513996,0.08897734619596864,0.0,0.0,0.0,0.75,1.0,MANUAL_MODE,True,False,False,,,False,False,0,None,25.0,10.0
1765888668.5064461,15.381223440170288,-0.07309671206848604,-0.0023220426439936053,0.09367030683693756,0.0,0.0,0.0,0.75,1.0,MANUAL_MODE,True,False,False,,,False,False,0,None,25.0,10.0
1765888668.6163604,15.49113941192627,-0.07309622056930916,-0.002321365620720484,0.09448636513597553,0.0,0.0,0.0,0.75,1.0,MANUAL_MODE,True,False,False,,,False,False,0,None,25.0,10.0
1765888668.7164137,15.591195106506348,-0.07372399918552781,-0.0018681906918601465,0.09413334147020347,0.0,0.0,0.0,0.75,1.0,MANUAL_MODE,True,False,False,,,False,False,0,None,25.0,10.0
1765888668.8165588,15.691336393356323,-0.07306328094469147,-0.002479275457662053,0.09005262097312272,0.0,0.0,0.0,0.75,1.0,MANUAL_MODE,True,False,False,,,False,False,0,None,25.0,10.0
1765888668.9180486,15.79283094406128,-0.073062495357921,-0.0024800018510921415,0.08957344103109666,0.0,0.0,0.0,0.75,1.0,MANUAL_MODE,True,False,False,,,False,False,0,None,25.0,10.0
1765888669.026568,15.901347398757935,-0.07350401761154876,-0.001502501929355553,0.09485454151252526,0.0,0.0,0.0,0.75,1.0,MANUAL_MODE,True,False,False,,,False,False,0,None,25.0,10.0
1765888669.1266954,16.00147557258606,-0.07350421775756301,-0.001502058819837192,0.09528134123937182,0.0,0.0,0.0,0.75,1.0,MANUAL_MODE,True,False,False,,,False,False,0,None,25.0,10.0
1765888669.2271101,16.10188865661621,-0.0743237905308937,-0.0010768845589507043,0.09490718322624314,0.0,0.0,0.0,0.75,1.0,MANUAL_MODE,True,False,False,,,False,False,0,None,25.0,10.0
1765888669.3362117,16.210988998413086,-0.07449640180907353,-0.0012375594902478211,0.09299683249919966,0.0,0.0,0.0,0.75,1.0,MANUAL_MODE,True,False,False,,,False,False,0,None,25.0,10.0
1765888669.4472961,16.322075366973877,-0.07449641321128414,-0.0012375701175312134,0.09291834767151297,0.0,0.0,0.0,0.75,1.0,MANUAL_MODE,True,False,False,,,False,False,0,None,25.0,10.0
1765888669.5561225,16.43090033531189,-0.07294291547811482,-0.0013400906499809004,0.09682824656844513,0.0,0.0,0.0,0.75,1.0,MANUAL_MODE,True,False,False,,,False,False,0,None,25.0,10.0
1765888669.6675649,16.54234218597412,-0.07294290975498571,-0.0013400910276694098,0.09685149873018606,0.0,0.0,0.0,0.75,1.0,MANUAL_MODE,True,False,False,,,False,False,0,None,25.0,10.0
1765888669.776194,16.65097141265869,-0.07457071549459114,-0.0013770787183967823,0.09714414665852189,0.0,0.0,0.0,0.75,1.0,MANUAL_MODE,True,False,False,,,False,False,0,None,25.0,10.0
1765888669.876245,16.751022338867188,-0.0745126552468926,-0.0013141670852192828,0.09332784618608958,0.0,0.0,0.0,0.75,1.0,MANUAL_MODE,True,False,False,,,False,False,0,None,25.0,10.0
1765888669.9864483,16.861225843429565,-0.07401798871619424,-0.001445642610240331,0.09531865374183646,0.0,0.0,0.0,0.75,1.0,MANUAL_MODE,True,False,False,,,False,False,0,None,25.0,10.0
1765888670.0866747,16.9614520072937,-0.07364982005987401,-0.001952467989940664,0.09868357894026136,0.0,0.0,0.0,0.75,1.0,MANUAL_MODE,True,False,False,,,False,False,0,None,25.0,10.0
1765888670.1867707,17.061548233032227,-0.07360136349201593,-0.0020352076651676196,0.09982456127754968,0.0,0.0,0.0,0.75,1.0,MANUAL_MODE,True,False,False,,,False,False,0,None,25.0,10.0
1765888670.2964532,17.17123055458069,-0.0738175038180884,-0.0018580811591415928,0.09381612860008204,0.0,0.0,0.0,0.75,1.0,MANUAL_MODE,True,False,False,,,False,False,0,None,25.0,10.0
1765888670.3969889,17.27176785469055,-0.07382220469417324,-0.0018542288013700446,0.09141958422974827,0.0,0.0,0.0,0.75,1.0,MANUAL_MODE,True,False,False,,,False,False,0,None,25.0,10.0
1765888670.5065434,17.381320476531982,-0.07247574072408582,-0.00158986166960212,0.09393811482334513,0.0,0.0,0.0,0.75,1.0,MANUAL_MODE,True,False,False,,,False,False,0,None,25.0,10.0
1765888670.6164663,17.491244077682495,-0.07403151257072806,-0.0011134688257677502,0.09792838422814398,0.0,0.0,0.0,0.75,1.0,MANUAL_MODE,True,False,False,,,False,False,0,None,25.0,10.0
1765888670.7165136,17.591291427612305,-0.07403336526326054,-0.0011129040160062565,0.09833376235317104,0.0,0.0,0.0,0.75,1.0,MANUAL_MODE,True,False,False,,,False,False,0,None,25.0,10.0
1765888670.816919,17.69169783592224,-0.07312732060840517,-0.001296127554730779,0.09356857231704563,0.0,0.0,0.0,0.75,1.0,MANUAL_MODE,True,False,False,,,False,False,0,None,25.0,10.0
1765888670.9266322,17.801409482955933,-0.07312624454443692,-0.0012963451601735252,0.09300933179748494,0.0,0.0,0.0,0.75,1.0,MANUAL_MODE,True,False,False,,,False,False,0,None,25.0,10.0
1765888671.0361922,17.910969734191895,-0.07243183102134258,-0.0015415824637403583,0.09966148522625318,0.0,0.0,0.0,0.75,1.0,MANUAL_MODE,True,False,False,,,False,False,0,None,25.0,10.0
1765888671.1364298,18.01120686531067,-0.07366207263470403,-0.0016016447793823446,0.09658532768728811,0.0,0.0,0.0,0.75,1.0,MANUAL_MODE,True,False,False,,,False,False,0,None,25.0,10.0
1765888671.2475746,18.122352838516235,-0.07366215397061951,-0.0016016487491185638,0.09642754282148225,0.0,0.0,0.0,0.75,1.0,MANUAL_MODE,True,False,False,,,False,False,0,None,25.0,10.0
1765888671.3561702,18.230947256088257,-0.0733785898013339,-0.0016063033150514987,0.1003611359733032,0.0,0.0,0.0,0.75,1.0,MANUAL_MODE,True,False,False,,,False,False,0,None,25.0,10.0
1765888671.4673612,18.342140913009644,-0.07337858875667556,-0.0016063033321990498,0.10037689015190043,0.0,0.0,0.0,0.75,1.0,MANUAL_MODE,True,False,False,,,False,False,0,None,25.0,10.0
1765888671.568978,18.443755865097046,-0.07431459269011406,-0.001060276664458156,0.10477414233608862,0.0,0.0,0.0,0.75,1.0,MANUAL_MODE,True,False,False,,,False,False,0,None,25.0,10.0
1765888671.676251,18.55102801322937,-0.07406935341342673,-0.0010974740915272523,0.10069299467869897,0.0,0.0,0.0,0.75,1.0,MANUAL_MODE,True,False,False,,,False,False,0,None,25.0,10.0
1765888671.7864988,18.66127586364746,-0.07402620529169697,-0.001091372472434264,0.10269659769538109,0.0,0.0,0.0,0.75,1.0,MANUAL_MODE,True,False,False,,,False,False,0,None,25.0,10.0
1765888671.8865066,18.76128387451172,-0.0734614449135493,-0.0013783881758877238,0.10218959949093076,0.0,0.0,0.0,0.75,1.0,MANUAL_MODE,True,False,False,,,False,False,0,None,25.0,10.0
1765888671.9964213,18.871198892593384,-0.07342826474354308,-0.0013953482284002924,0.10096993518210962,0.0,0.0,0.0,0.75,1.0,MANUAL_MODE,True,False,False,,,False,False,0,None,25.0,10.0
1765888672.1063514,18.981128692626953,-0.07374969885798174,-0.0012858742102513842,0.10319562214016553,0.0,0.0,0.0,0.75,1.0,MANUAL_MODE,True,False,False,,,False,False,0,None,25.0,10.0
1765888672.2063556,19.081132888793945,-0.07375070021953418,-0.0012855331665693232,0.1035761951882348,0.0,0.0,0.0,0.75,1.0,MANUAL_MODE,True,False,False,,,False,False,0,None,25.0,10.0
1765888672.3065662,19.18134331703186,-0.07425657648076588,-0.0012095518728417068,0.10697968450618411,0.0,0.0,0.0,0.75,1.0,MANUAL_MODE,True,False,False,,,False,False,0,None,25.0,10.0
1765888672.4166136,19.291393280029297,-0.07441205783572212,-0.0010372235270069625,0.1054816771025342,0.0,0.0,0.0,0.75,1.0,MANUAL_MODE,True,False,False,,,False,False,0,None,25.0,10.0
1765888672.5263596,19.401136875152588,-0.07441224062180135,-0.0010370191423138312,0.10519362020272816,0.0,0.0,0.0,0.75,1.0,MANUAL_MODE,True,False,False,,,False,False,0,None,25.0,10.0
1765888672.626571,19.5013484954834,-0.07322639779591902,-0.0006174282246645487,0.10038807239270309,0.0,0.0,0.0,0.75,1.0,MANUAL_MODE,True,False,False,,,False,False,0,None,25.0,10.0
1765888672.7287972,19.603580236434937,-0.07322619252636318,-0.0006173555934191484,0.10013167789736421,0.0,0.0,0.0,0.75,1.0,MANUAL_MODE,True,False,False,,,False,False,0,None,25.0,10.0
1765888672.8362758,19.711053133010864,-0.07320600863105553,-0.0012004665796170855,0.10310746123859715,0.0,0.0,0.0,0.75,1.0,MANUAL_MODE,True,False,False,,,False,False,0,None,25.0,10.0
1765888672.946606,19.821383953094482,-0.07325979550633599,-0.0012249761729447857,0.10973248500671229,0.0,0.0,0.0,0.75,1.0,MANUAL_MODE,True,False,False,,,False,False,0,None,25.0,10.0
1765888673.04687,19.92164921760559,-0.0732597960251212,-0.0012249764089701267,0.10980335681212594,0.0,0.0,0.0,0.75,1.0,MANUAL_MODE,True,False,False,,,False,False,0,None,25.0,10.0
1765888673.1561956,20.030972719192505,-0.07309865372282161,-0.0010359255775232357,0.10683011791396879,0.0,0.0,0.0,0.75,1.0,MANUAL_MODE,True,False,False,,,False,False,0,None,25.0,10.0
1765888673.267154,20.141931533813477,-0.07309865312916886,-0.001035924881054684,0.1067661844365908,0.0,0.0,0.0,0.75,1.0,MANUAL_MODE,True,False,False,,,False,False,0,None,25.0,10.0
1765888673.3761725,20.25094962120056,-0.07304839777819966,-0.00176126039582806,0.10478244509034695,0.0,0.0,0.0,0.75,1.0,MANUAL_MODE,True,False,False,,,False,False,0,None,25.0,10.0
1765888673.4872665,20.362043857574463,-0.07282665089867765,-0.0015335054155947389,0.10538885710130508,0.0,0.0,0.0,0.75,1.0,MANUAL_MODE,True,False,False,,,False,False,0,None,25.0,10.0
1765888673.5963569,20.471134185791016,-0.07296597173237293,-0.0015319087995895198,0.10953085963361353,0.0,0.0,0.0,0.75,1.0,MANUAL_MODE,True,False,False,,,False,False,0,None,25.0,10.0
1765888673.6964707,20.571251392364502,-0.0728347345844463,-0.0015717949263691676,0.10742179723954681,0.0,0.0,0.0,0.75,1.0,MANUAL_MODE,True,False,False,,,False,False,0,None,25.0,10.0
1765888673.8064525,20.681229829788208,-0.07283181438146066,-0.0015726631726559472,0.10588961206599468,0.0,0.0,0.0,0.75,1.0,MANUAL_MODE,True,False,False,,,False,False,0,None,25.0,10.0
1765888673.906523,20.78130006790161,-0.07228999852614636,-0.0010956851958019767,0.10799459893182473,0.0,0.0,0.0,0.75,1.0,MANUAL_MODE,True,False,False,,,False,False,0,None,25.0,10.0
1765888674.006639,20.88141632080078,-0.07228831061086322,-0.0010941992695238667,0.10835997023615818,0.0,0.0,0.0,0.75,1.0,MANUAL_MODE,True,False,False,,,False,False,0,None,25.0,10.0
1765888674.1164646,20.9912428855896,-0.0717929510401361,-0.0005792137474846733,0.1031393178619826,0.0,0.0,0.0,0.75,1.0,MANUAL_MODE,True,False,False,,,False,False,0,None,25.0,10.0
1765888674.226871,21.101648569107056,-0.07247284537986413,-0.0003895257542959066,0.10669174076400267,0.0,0.0,0.0,0.75,1.0,MANUAL_MODE,True,False,False,,,False,False,0,None,25.0,10.0
1765888674.3362648,21.211042165756226,-0.0724729631714978,-0.00038949302509138126,0.10694896783938379,0.0,0.0,0.0,0.75,1.0,MANUAL_MODE,True,False,False,,,False,False,0,None,25.0,10.0
1765888674.4364264,21.311203956604004,-0.07264183540526277,-0.0002593234932943068,0.10579458301824829,0.0,0.0,0.0,0.75,1.0,MANUAL_MODE,True,False,False,,,False,False,0,None,25.0,10.0
1765888674.5466223,21.42139959335327,-0.07264184656963017,-0.000259314887613879,0.10575143338021853,0.0,0.0,0.0,0.75,1.0,MANUAL_MODE,True,False,False,,,False,False,0,None,25.0,10.0
1765888674.6484582,21.52323627471924,-0.07306224288773815,-0.00029871673360599787,0.10851531723686136,0.0,0.0,0.0,0.75,1.0,MANUAL_MODE,True,False,False,,,False,False,0,None,25.0,10.0
1765888674.7563448,21.63112211227417,-0.07255212429479253,0.0005016309671505631,0.10550136353433004,0.0,0.0,0.0,0.75,1.0,MANUAL_MODE,True,False,False,,,False,False,0,None,25.0,10.0
1765888674.8675735,21.74235439300537,-0.07255212241546444,0.0005016339156573435,0.10546466017950795,0.0,0.0,0.0,0.75,1.0,MANUAL_MODE,True,False,False,,,False,False,0,None,25.0,10.0
1765888674.9679112,21.84269142150879,-0.07166149490718246,6.125307871162515e-05,0.10087088883397222,0.0,0.0,0.0,0.75,1.0,MANUAL_MODE,True,False,False,,,False,False,0,None,25.0,10.0
1765888675.0761085,21.950886011123657,-0.07210762544608808,0.0001520693228783993,0.10197875952655977,0.0,0.0,0.0,0.75,1.0,MANUAL_MODE,True,False,False,,,False,False,0,None,25.0,10.0
1765888675.1761189,22.050895929336548,-0.07194496900761353,0.0004376319316753911,0.1040480620967914,0.0,0.0,0.0,0.75,1.0,MANUAL_MODE,True,False,False,,,False,False,0,None,25.0,10.0
1765888675.2762265,22.15100359916687,-0.07167403530027158,0.0005794304934729462,0.10049786931058513,0.0,-0.15,0.0,0.75,1.0,MANUAL_MODE,True,False,False,,,False,False,0,None,25.0,10.0
1765888675.3872557,22.26203489303589,-0.07249440840695394,0.0005421954142210963,0.10268605647270768,0.0,-0.15,0.0,0.75,1.0,MANUAL_MODE,True,False,False,,,False,False,0,None,25.0,10.0
1765888675.4878376,22.362622022628784,-0.07269321909989111,0.0003745747419892128,0.10205103534140214,0.0,-0.15,0.0,0.75,1.0,MANUAL_MODE,True,False,False,,,False,False,0,None,25.0,10.0
1765888675.5966344,22.47141170501709,-0.07270209497052212,0.0003648119647284032,0.10069969871789208,0.0,-0.15,0.0,0.75,1.0,MANUAL_MODE,True,False,False,,,False,False,0,None,25.0,10.0
1765888675.7064967,22.58127450942993,-0.07293598286483836,0.000573290785533885,0.09990704075158607,0.0,-0.15,0.0,0.75,1.0,MANUAL_MODE,True,False,False,,,False,False,0,None,25.0,10.0
1765888675.8165162,22.691293478012085,-0.0729367114944562,0.0005739402584218114,0.09978711399794893,0.0,-0.15,0.0,0.75,1.0,MANUAL_MODE,True,False,False,,,False,False,0,None,25.0,10.0
1765888675.91654,22.791317224502563,-0.07312671232314033,0.0010885317508161456,0.10334413503780215,0.0,-0.15,0.0,0.75,1.0,MANUAL_MODE,True,False,False,,,False,False,0,None,25.0,10.0
1765888676.016831,22.891608715057373,-0.07326649357694713,0.001402088474931331,0.09879360558886763,0.0,-0.15,0.0,0.75,1.0,MANUAL_MODE,True,False,False,,,False,False,0,None,25.0,10.0
1765888676.1263404,23.001117706298828,-0.0732666593202811,0.0014024601450770898,0.09820469288653477,0.0,0.0,0.0,0.75,1.0,MANUAL_MODE,True,False,False,,,False,False,0,None,25.0,10.0
1765888676.2268634,23.101640701293945,-0.07312343937380558,0.0013198387200066873,0.10066556002953853,0.0,0.0,0.0,0.75,1.0,MANUAL_MODE,True,False,False,,,False,False,0,None,25.0,10.0
1765888676.336499,23.211277961730957,-0.07312341458240497,0.001319824418221918,0.10081483750276732,0.0,0.0,0.0,0.75,1.0,MANUAL_MODE,True,False,False,,,False,False,0,None,25.0,10.0
1765888676.4378002,23.312578678131104,-0.07273775243611821,0.00041747737203619913,0.09870372465209698,0.0,0.0,0.0,0.75,1.0,MANUAL_MODE,True,False,False,,,False,False,0,None,25.0,10.0
1765888676.5464385,23.421216011047363,-0.07247880051135479,0.0008598642950265276,0.10423142186246626,0.0,0.0,0.0,0.75,1.0,MANUAL_MODE,True,False,False,,,False,False,0,None,25.0,10.0
1765888676.6465573,23.521334886550903,-0.07247879397314035,0.0008598754673449853,0.10436441639316385,0.0,0.0,0.0,0.75,1.0,MANUAL_MODE,True,False,False,,,False,False,0,None,25.0,10.0
1765888676.7561555,23.630932807922363,-0.07311030881901903,0.0011219733879905855,0.09825901630565337,0.0,0.0,0.0,0.75,1.0,MANUAL_MODE,True,False,False,,,False,False,0,None,25.0,10.0
1765888676.8562102,23.730987548828125,-0.07311031490995668,0.0011219759159154684,0.09815773778552295,0.0,0.0,0.0,0.75,1.0,MANUAL_MODE,True,False,False,,,False,False,0,None,25.0,10.0
1765888676.956218,23.830995321273804,-0.07384335777438136,0.00027427962181798376,0.10321421521249352,0.0,0.0,0.0,0.75,1.0,MANUAL_MODE,True,False,False,,,False,False,0,None,25.0,10.0
1765888677.06728,23.94206142425537,-0.07383761750800782,0.0004595044681261637,0.09564983983001962,0.0,0.0,0.0,0.75,1.0,MANUAL_MODE,True,False,False,,,False,False,0,None,25.0,10.0
1765888677.1761155,24.05089259147644,-0.07416288693324592,0.0010404522566434275,0.09700228129654409,0.0,0.0,0.0,0.75,1.0,MANUAL_MODE,True,False,False,,,False,False,0,None,25.0,10.0
1765888677.276243,24.151020288467407,-0.07441036020587861,0.0010096137717045203,0.09992443509077731,0.0,0.0,0.0,0.75,1.0,MANUAL_MODE,True,False,False,,,False,False,0,None,25.0,10.0
1765888677.3871424,24.26192021369934,-0.0744390654061322,0.0007686525995037512,0.09648200406543772,0.0,0.0,0.0,0.75,1.0,MANUAL_MODE,True,False,False,,,False,False,0,None,25.0,10.0
1765888677.496125,24.37090253829956,-0.07367978306045281,0.0013364784553674344,0.09901542700947985,0.0,0.0,0.0,0.75,1.0,MANUAL_MODE,True,False,False,,,False,False,0,None,25.0,10.0
1765888677.5965424,24.471320390701294,-0.07363497252248125,0.0013699898138120191,0.10066938912132528,0.0,0.0,0.0,0.75,1.0,MANUAL_MODE,True,False,False,,,False,False,0,None,25.0,10.0
1765888677.7064455,24.581222772598267,-0.0741258134797201,0.0019742551045911546,0.09903073076781066,0.0,0.0,0.0,0.75,1.0,MANUAL_MODE,True,False,False,,,False,False,0,None,25.0,10.0
1765888677.8065317,24.68130898475647,-0.07388154571808286,0.0020056937797468767,0.10238616706129555,0.0,0.0,0.0,0.75,1.0,MANUAL_MODE,True,False,False,,,False,False,0,None,25.0,10.0
1765888677.9065418,24.78131890296936,-0.07388077998955525,0.00200578585702563,0.10300673901810065,0.0,0.0,0.0,0.75,1.0,MANUAL_MODE,True,False,False,,,False,False,0,None,25.0,10.0
1765888678.006863,24.881640434265137,-0.07408449308792935,0.0019695509553933187,0.09996319881097726,0.0,0.0,0.0,0.75,1.0,MANUAL_MODE,True,False,False,,,False,False,0,None,25.0,10.0
1765888678.1162632,24.99104070663452,-0.07408616297837364,0.0019692539282682615,0.09916512946767764,0.0,0.0,0.0,0.75,1.0,MANUAL_MODE,True,False,False,,,False,False,0,None,25.0,10.0
1765888678.2165155,25.091295957565308,-0.07463833857722987,0.0015231508154097263,0.10321873152445527,0.0,0.0,0.0,0.75,1.0,MANUAL_MODE,True,False,False,,,False,False,0,None,25.0,10.0
1765888678.3167117,25.191490411758423,-0.07497172200833535,0.0016427160091046942,0.10531969361981375,0.0,0.0,0.0,0.75,1.0,MANUAL_MODE,True,False,False,,,False,False,0,None,25.0,10.0
1765888678.4175572,25.292335748672485,-0.07497211590894066,0.0016428596604255487,0.10544654335295611,0.0,0.0,0.0,0.75,1.0,MANUAL_MODE,True,False,False,,,False,False,0,None,25.0,10.0
1765888678.526643,25.40142011642456,-0.07412824852913459,0.0024332401109481015,0.0993290826394384,0.0,0.0,0.0,0.75,1.0,MANUAL_MODE,True,False,False,,,False,False,0,None,25.0,10.0
1765888678.6363697,25.511146783828735,-0.07412810245552683,0.0024333769259579432,0.09898789035067601,0.0,0.0,0.0,0.75,1.0,MANUAL_MODE,True,False,False,,,False,False,0,None,25.0,10.0
1765888678.7364924,25.61126971244812,-0.07477439343973558,0.0020652273843848527,0.1042753416074147,0.0,0.0,0.0,0.75,1.0,MANUAL_MODE,True,False,False,,,False,False,0,None,25.0,10.0
1765888678.8365297,25.711307048797607,-0.07462160728068311,0.0022240808785869604,0.09972326631021478,0.0,0.0,0.0,0.75,1.0,MANUAL_MODE,True,False,False,,,False,False,0,None,25.0,10.0
1765888678.9463012,25.821078538894653,-0.07462158081406076,0.0022241083871580806,0.09944687287845433,0.0,0.0,0.0,0.75,1.0,MANUAL_MODE,True,False,False,,,False,False,0,None,25.0,10.0
1765888679.0463622,25.92113947868347,-0.07492828746108464,0.0022289629814451696,0.10359713799313841,0.0,0.0,0.0,0.75,1.0,MANUAL_MODE,True,False,False,,,False,False,0,None,25.0,10.0
1765888679.1464238,26.02120089530945,-0.07490250715116707,0.002137334668367129,0.10017032391253622,0.0,0.15,0.0,0.75,1.0,MANUAL_MODE,True,False,False,,,False,False,0,None,25.0,10.0
1765888679.2562077,26.130984783172607,-0.0749025069024463,0.002137333784613982,0.10010438091520868,0.0,0.15,0.0,0.75,1.0,MANUAL_MODE,True,False,False,,,False,False,0,None,25.0,10.0
1765888679.3563225,26.231099843978882,-0.07525480222852243,0.0016988179361467517,0.10134006280882168,0.0,0.15,0.0,0.75,1.0,MANUAL_MODE,True,False,False,,,False,False,0,None,25.0,10.0
1765888679.4673052,26.342085123062134,-0.07525480562639957,0.0016988137066754493,0.10136350203045374,0.0,0.15,0.0,0.75,1.0,MANUAL_MODE,True,False,False,,,False,False,0,None,25.0,10.0
1765888679.568099,26.442877054214478,-0.07513915036944839,0.002394756167865936,0.10207430474942303,0.0,0.15,0.0,0.75,1.0,MANUAL_MODE,True,False,False,,,False,False,0,None,25.0,10.0
1765888679.6761055,26.550882816314697,-0.07545985035139656,0.002564550161408026,0.10093709534887108,0.0,0.15,0.0,0.75,1.0,MANUAL_MODE,True,False,False,,,False,False,0,None,25.0,10.0
1765888679.7872066,26.661983728408813,-0.07562883757120657,0.0027071670996935216,0.09712528775689933,0.0,0.15,0.0,0.75,1.0,MANUAL_MODE,True,False,False,,,False,False,0,None,25.0,10.0
1765888679.8961248,26.770902395248413,-0.0756388106830743,0.002715583918952805,0.09465770903371773,0.0,0.15,0.0,0.75,1.0,MANUAL_MODE,True,False,False,,,False,False,0,None,25.0,10.0
1765888680.0063806,26.881158113479614,-0.07581932766314053,0.0028143923166922256,0.10020725308133027,0.0,0.15,0.0,0.75,1.0,MANUAL_MODE,True,False,False,,,False,False,0,None,25.0,10.0
1765888680.106412,26.981189489364624,-0.07575601420096616,0.002764966001771895,0.1001978821656273,0.0,0.0,0.0,0.75,1.0,MANUAL_MODE,True,False,False,,,False,False,0,None,25.0,10.0
1765888680.2064137,27.081190824508667,-0.07575549059431419,0.0027645583181665203,0.09992397321086166,0.0,0.0,0.0,0.75,1.0,MANUAL_MODE,True,False,False,,,False,False,0,None,25.0,10.0
1765888680.3073807,27.182158946990967,-0.07533295553867723,0.002507180927779382,0.09832279435060265,0.0,0.0,-0.03,0.75,1.0,MANUAL_MODE,True,False,False,,,False,False,0,None,25.0,10.0
1765888680.4165373,27.291314601898193,-0.07532949190646346,0.002505071136867634,0.0979099560559975,0.0,0.0,-0.09,0.75,1.0,MANUAL_MODE,True,False,False,,,False,False,0,None,25.0,10.0
1765888680.5264096,27.40118718147278,-0.07559874343694976,0.002443998213504334,0.1020630174356878,0.0,0.0,-0.135,0.75,1.0,MANUAL_MODE,True,False,False,,,False,False,0,None,25.0,10.0
1765888680.6362677,27.511045217514038,-0.07525407885166148,0.0029811044749794456,0.09718708130625142,0.0,0.0,-0.21000000000000008,0.75,1.0,MANUAL_MODE,True,False,False,,,False,False,0,None,25.0,10.0
1765888680.7367375,27.611517429351807,-0.07525405605739488,0.0029811399855952103,0.09698118365006803,0.0,0.0,-0.27000000000000013,0.75,1.0,MANUAL_MODE,True,False,False,,,False,False,0,None,25.0,10.0
1765888680.8463347,27.721112489700317,-0.07598610332684382,0.0026977553475215628,0.10225539481302626,0.0,0.0,-0.23149125000000007,0.75,1.0,MANUAL_MODE,True,False,False,,,False,False,0,None,25.0,10.0
1765888680.956237,27.831014394760132,-0.07576857305599691,0.0026216470115113066,0.09927893316818626,0.0,0.0,-0.1791235164480469,0.75,1.0,MANUAL_MODE,True,False,False,,,False,False,0,None,25.0,10.0
1765888681.0564637,27.931240797042847,-0.07576857225458511,0.0026216467311357045,0.09922833994551361,0.0,0.0,-0.15357602491464417,0.75,1.0,MANUAL_MODE,True,False,False,,,False,False,0,None,25.0,10.0
1765888681.1665065,28.041284561157227,-0.07532979281886255,0.0023434470022935766,0.1008632765142492,0.0,0.0,-0.11883420053597667,0.75,1.0,MANUAL_MODE,True,False,False,,,False,False,0,None,25.0,10.0
1765888681.276147,28.15092396736145,-0.07532979220142526,0.0023434466108192393,0.10086603703557895,0.0,0.0,-0.091951639097791,0.75,1.0,MANUAL_MODE,True,False,False,,,False,False,0,None,25.0,10.0
1765888681.3864899,28.26126790046692,-0.07695420505702857,0.002453069201454841,0.10117921799959362,0.0,0.0,-0.07883703657146854,0.75,1.0,MANUAL_MODE,True,False,False,,,False,False,0,None,25.0,10.0
1765888681.4866204,28.361397743225098,-0.0770067971626361,0.0024860479999991884,0.10282825584633937,0.0,0.0,-0.06759290423046282,0.75,1.0,MANUAL_MODE,True,False,False,,,False,False,0,None,25.0,10.0
1765888681.5871124,28.461891651153564,-0.0770941600235527,0.0028431500093984894,0.10360980973480949,0.0,0.0,-0.040054842951363405,0.75,1.0,MANUAL_MODE,True,False,False,,,False,False,0,None,25.0,10.0
1765888681.6874278,28.562206506729126,-0.07710908336896005,0.0029041502792594206,0.10453900731899957,0.0,0.0,-0.010054842951363406,0.75,1.0,MANUAL_MODE,True,False,False,,,False,False,0,None,25.0,10.0
1765888681.7961202,28.670897483825684,-0.07658708525051265,0.0022828373606984228,0.10214570648765253,0.0,0.0,0.0649451570486366,0.75,1.0,MANUAL_MODE,True,False,False,,,False,False,0,None,25.0,10.0
1765888681.9066353,28.781412363052368,-0.07683567199219353,0.0025265817329750634,0.10211573225082837,0.0,0.0,0.1249451570486366,0.75,1.0,MANUAL_MODE,True,False,False,,,False,False,0,None,25.0,10.0
1765888682.0070343,28.881811380386353,-0.07683654238246523,0.0025274552969363736,0.10238997332517208,0.0,0.0,0.18494515704863662,0.75,1.0,MANUAL_MODE,True,False,False,,,False,False,0,None,25.0,10.0
1765888682.116427,28.991208791732788,-0.07650427627663005,0.001552363270789645,0.10504169258558083,0.0,0.0,0.24494515704863667,0.75,1.0,MANUAL_MODE,True,False,False,,,False,False,0,None,25.0,10.0
1765888682.2166164,29.09139370918274,-0.07650388166095806,0.0015512052032406415,0.10534007520906385,0.0,0.0,0.2899451570486367,0.75,1.0,MANUAL_MODE,True,False,False,,,False,False,0,None,25.0,10.0
1765888682.3263392,29.201116800308228,-0.07630118663123553,0.001978710220436895,0.10564275040455406,0.0,0.0,0.34994515704863677,0.75,1.0,MANUAL_MODE,True,False,False,,,False,False,0,None,25.0,10.0
1765888682.4266493,29.30142641067505,-0.07696611673619672,0.002015897774249427,0.10974558022615,0.0,0.0,0.4099451570486368,0.75,1.0,MANUAL_MODE,True,False,False,,,False,False,0,None,25.0,10.0
1765888682.536382,29.41115975379944,-0.076966231851583,0.002015904177980982,0.10993422128450625,0.0,0.0,0.33390289257334616,0.75,1.0,MANUAL_MODE,True,False,False,,,False,False,0,None,25.0,10.0
1765888682.6369371,29.511716604232788,-0.07641104022716219,0.0024260594994520465,0.1059401364228032,0.0,0.0,0.30127999252007265,0.75,1.0,MANUAL_MODE,True,False,False,,,False,False,0,None,25.0,10.0
1765888682.7463536,29.62113094329834,-0.07641094412337172,0.0024261304974270495,0.10569925774244826,0.0,0.0,0.3462799925200727,0.75,1.0,MANUAL_MODE,True,False,False,,,False,False,0,None,25.0,10.0
1765888682.8464348,29.721211910247803,-0.07672442779720987,0.002603811434287875,0.10998816328698613,0.0,0.0,0.40627999252007274,0.75,1.0,MANUAL_MODE,True,False,False,,,False,False,0,None,25.0,10.0
1765888682.956275,29.83105230331421,-0.07706052368892134,0.002332769441160469,0.10749974499157933,0.0,0.0,0.4662799925200728,0.75,1.0,MANUAL_MODE,True,False,False,,,False,False,0,None,25.0,10.0
1765888683.0569925,29.93177080154419,-0.07706052693052541,0.002332766826954156,0.1074368236491976,0.0,0.0,0.5,0.75,1.0,MANUAL_MODE,True,False,False,,,False,False,0,None,25.0,10.0
1765888683.1664412,30.041222095489502,-0.07674836528245205,0.00265711147650007,0.10830805614616779,0.0,0.0,0.5,0.75,1.0,MANUAL_MODE,True,False,False,,,False,False,0,None,25.0,10.0
1765888683.2667787,30.141557693481445,-0.07695972036857375,0.0024196245240354977,0.10469176280314763,0.0,0.0,0.5,0.75,1.0,MANUAL_MODE,True,False,False,,,False,False,0,None,25.0,10.0
1765888683.3761487,30.25092601776123,-0.07695972066598669,0.002419624189850565,0.10468184269048209,0.0,0.0,0.5,0.75,1.0,MANUAL_MODE,True,False,False,,,False,False,0,None,25.0,10.0
1765888683.4761622,30.350939512252808,-0.07660939811390619,0.003053611248680451,0.10847213235085462,0.0,0.0,0.40725312499999994,0.75,1.0,MANUAL_MODE,True,False,False,,,False,False,0,None,25.0,10.0
1765888683.5901816,30.464959621429443,-0.07703010774660146,0.0031859749545174246,0.10737009820958754,0.0,0.0,0.3317102156445311,0.75,1.0,MANUAL_MODE,True,False,False,,,False,False,0,None,25.0,10.0
1765888683.6961327,30.57090973854065,-0.07760210061425307,0.003417600642719711,0.10865434420437659,0.0,0.0,0.25667104163975235,0.75,1.0,MANUAL_MODE,True,False,False,,,False,False,0,None,25.0,10.0
1765888683.7962773,30.67105484008789,-0.07763161660934471,0.0034299360973318424,0.11036388275778375,0.0,0.0,0.23164561507987647,0.75,1.0,MANUAL_MODE,True,False,False,,,False,False,0,None,25.0,10.0
1765888683.9075,30.782278537750244,-0.07692396335990362,0.003788440504809991,0.10775278911395603,0.0,0.0,0.16406016760958847,0.75,1.0,MANUAL_MODE,True,False,False,,,False,False,0,None,25.0,10.0
1765888684.0164893,30.89126682281494,-0.07691816253790121,0.003791379260721055,0.10706556239836562,0.0,0.0,0.10406016760958844,0.75,1.0,MANUAL_MODE,True,False,False,,,False,False,0,None,25.0,10.0
1765888684.1266885,31.001466035842896,-0.07727041246938746,0.002882688370367055,0.10397721504967183,0.0,0.0,0.08475765689405734,0.75,1.0,MANUAL_MODE,True,False,False,,,False,False,0,None,25.0,10.0
1765888684.237251,31.1120285987854,-0.07715188502182435,0.0033672891512188147,0.10799055444413419,0.0,0.0,0.06903564127556527,0.75,1.0,MANUAL_MODE,True,False,False,,,False,False,0,None,25.0,10.0
1765888684.3463101,31.221087217330933,-0.0771518771752938,0.0033673212159671725,0.10816849854711919,0.0,0.0,0.02918943293863778,0.75,1.0,MANUAL_MODE,True,False,False,,,False,False,0,None,25.0,10.0
1765888684.4463603,31.32113742828369,-0.078100310906273,0.003146135499853898,0.10611588424664298,0.0,0.0,-0.01581056706136222,0.75,1.0,MANUAL_MODE,True,False,False,,,False,False,0,None,25.0,10.0
1765888684.5463643,31.421141624450684,-0.07810033485539733,0.003146129914641096,0.10606434710730284,0.0,0.0,-0.07581056706136222,0.75,1.0,MANUAL_MODE,True,False,False,,,False,False,0,None,25.0,10.0
1765888684.6564517,31.531230211257935,-0.07723741065094288,0.0033353583158147334,0.10739814741256648,0.0,0.0,-0.10581056706136222,0.75,1.0,MANUAL_MODE,True,False,False,,,False,False,0,None,25.0,10.0
1765888684.7566533,31.631433725357056,-0.07794899881973559,0.0027800921332393207,0.10803443326462325,0.0,0.0,-0.09840096193752364,0.75,1.0,MANUAL_MODE,True,False,False,,,False,False,0,None,25.0,10.0
1765888684.8568344,31.731611728668213,-0.07794900568305331,0.002780086777700624,0.10803645851755839,0.0,0.0,-0.0801481985041251,0.75,1.0,MANUAL_MODE,True,False,False,,,False,False,0,None,25.0,10.0
1765888684.9666507,31.84142804145813,-0.07777867260598276,0.0032594976704895164,0.10545592286638339,0.0,0.0,-0.06528120860785054,0.75,1.0,MANUAL_MODE,True,False,False,,,False,False,0,None,25.0,10.0
1765888685.0761917,31.950969219207764,-0.07892170657235138,0.0029915656278879463,0.10978078534695701,0.0,0.0,-0.055970476230155844,0.75,1.0,MANUAL_MODE,True,False,False,,,False,False,0,None,25.0,10.0
1765888685.187303,32.06208157539368,-0.07823433839025909,0.002310311078563891,0.10824216061172631,0.0,0.0,-0.043308887569691444,0.75,1.0,MANUAL_MODE,True,False,False,,,False,False,0,None,25.0,10.0
1765888685.296131,32.170907974243164,-0.07811692180624566,0.002193938957036651,0.10637722451302434,0.0,0.0,-0.035275359606060985,0.75,1.0,MANUAL_MODE,True,False,False,,,False,False,0,None,25.0,10.0
1765888685.3961587,32.27093577384949,-0.07764031408228325,0.0026296307546928395,0.10855015518417055,0.0,0.0,-0.03024421144224653,0.75,1.0,MANUAL_MODE,True,False,False,,,False,False,0,None,25.0,10.0
1765888685.5071793,32.381956815719604,-0.0778528787406837,0.002907901582031839,0.10661282921986981,0.0,0.0,-0.025930630785296116,0.75,1.0,MANUAL_MODE,True,False,False,,,False,False,0,None,25.0,10.0
1765888685.6072485,32.48202967643738,-0.0778535732337284,0.0029087389576593478,0.10611969887834061,0.0,0.0,-0.020064627799012785,0.75,1.0,MANUAL_MODE,True,False,False,,,False,False,0,None,25.0,10.0
1765888685.7161179,32.59089517593384,-0.07821976554262175,0.0027918321520385937,0.11029073263292233,0.0,0.0,-0.016342764746219655,0.75,1.0,MANUAL_MODE,True,False,False,,,False,False,0,None,25.0,10.0
1765888685.8265095,32.701287031173706,-0.07822090633957716,0.0027914679528860476,0.11100658935153707,0.0,0.0,-0.01331128402807557,0.75,1.0,MANUAL_MODE,True,False,False,,,False,False,0,None,25.0,10.0
1765888685.9282196,32.802998065948486,-0.07741905258750165,0.003359599544423614,0.10792582574358978,0.0,0.0,-0.010842124036392725,0.75,1.0,MANUAL_MODE,True,False,False,,,False,False,0,None,25.0,10.0
1765888686.0364788,32.91125726699829,-0.07708567819161488,0.0033399050654370414,0.10102150018703338,0.0,0.0,0.0,0.75,1.0,MANUAL_MODE,True,False,False,,,False,False,0,None,25.0,10.0
1765888686.1463826,33.02115988731384,-0.07708565616093915,0.0033399037569274677,0.10081733168493923,0.0,0.0,0.0,0.75,1.0,MANUAL_MODE,True,False,False,,,False,False,0,None,25.0,10.0
1765888686.2566893,33.13146710395813,-0.07747924285811615,0.0029614973566032344,0.10792804047358207,0.0,0.0,0.0,0.75,1.0,MANUAL_MODE,True,False,False,,,False,False,0,None,25.0,10.0
1765888686.3662934,33.24107050895691,-0.07747924430810056,0.0029614959625434696,0.10801339879114913,0.0,0.0,0.0,0.75,1.0,MANUAL_MODE,True,False,False,,,False,False,0,None,25.0,10.0
1765888686.4663303,33.34110736846924,-0.07674212422789588,0.004295019001411182,0.10030011283024631,0.0,0.0,0.0,0.75,1.0,MANUAL_MODE,True,False,False,,,False,False,0,None,25.0,10.0
1765888686.5764892,33.451266288757324,-0.07755554002800176,0.00400925972574662,0.10888753431198772,0.0,0.0,0.0,0.75,1.0,MANUAL_MODE,True,False,False,,,False,False,0,None,25.0,10.0
1765888686.687238,33.56201720237732,-0.07749112129486614,0.004034823588346202,0.10762425111106477,0.0,0.0,0.0,0.75,1.0,MANUAL_MODE,True,False,False,,,False,False,0,None,25.0,10.0
1765888686.7961106,33.67088770866394,-0.07700418646090679,0.003872718268256616,0.10380468041613167,0.0,0.0,0.0,0.75,1.0,MANUAL_MODE,True,False,False,,,False,False,0,None,25.0,10.0
1765888686.8961525,33.77092957496643,-0.07699367871152599,0.003869159797172896,0.10262535932324379,0.0,0.0,0.0,0.75,1.0,MANUAL_MODE,True,False,False,,,False,False,0,None,25.0,10.0
1765888686.996299,33.871076583862305,-0.07690622760106841,0.004863788219405767,0.10576257020037261,0.0,0.0,0.0,0.75,1.0,MANUAL_MODE,True,False,False,,,False,False,0,None,25.0,10.0
1765888687.1071787,33.981956005096436,-0.07690432561010796,0.0048854205850099594,0.10702483899664372,0.0,0.0,0.0,0.75,1.0,MANUAL_MODE,True,False,False,,,False,False,0,None,25.0,10.0
1765888687.2073023,34.082080125808716,-0.07687937806765055,0.004341807339646284,0.10453731339299566,0.0,0.0,0.0,0.75,1.0,MANUAL_MODE,True,False,False,,,False,False,0,None,25.0,10.0
1765888687.3161185,34.190895557403564,-0.07803948114047991,0.004481447280053279,0.10929808679492936,0.0,0.0,0.0,0.75,1.0,MANUAL_MODE,True,False,False,,,False,False,0,None,25.0,10.0
1765888687.4161344,34.29091143608093,-0.07804085902859066,0.004481615134312253,0.1099045116177102,0.0,0.0,0.0,0.75,1.0,MANUAL_MODE,True,False,False,,,False,False,0,None,25.0,10.0
1765888687.5161731,34.390950202941895,-0.07807819826936277,0.004580055828486225,0.1068819888845498,0.0,0.0,0.0,0.75,1.0,MANUAL_MODE,True,False,False,,,False,False,0,None,25.0,10.0
1765888687.6268675,34.50164484977722,-0.07807824261531253,0.004580172741580111,0.10650833996808018,0.0,0.0,0.0,0.75,1.0,MANUAL_MODE,True,False,False,,,False,False,0,None,25.0,10.0
1765888687.7361205,34.61089849472046,-0.07775850519717653,0.004722398448192529,0.10321450406920185,0.0,0.0,0.0,0.75,1.0,MANUAL_MODE,True,False,False,,,False,False,0,None,25.0,10.0
1765888687.8377802,34.71255850791931,-0.07720011614045354,0.00463581989401806,0.10751586554664438,0.0,0.0,0.0,0.75,1.0,MANUAL_MODE,True,False,False,,,False,False,0,None,25.0,10.0
1765888687.9463658,34.82114315032959,-0.07720007922599836,0.0046358141695784175,0.107697024931098,0.0,0.0,0.0,0.75,1.0,MANUAL_MODE,True,False,False,,,False,False,0,None,25.0,10.0
1765888688.0463839,34.92116117477417,-0.07775325554088679,0.004776728399904747,0.10068548438485525,0.0,0.0,0.0,0.75,1.0,MANUAL_MODE,True,False,False,,,False,False,0,None,25.0,10.0
1765888688.1562216,35.030999183654785,-0.07775326087625394,0.004776729759017809,0.100594312124211,0.0,0.0,0.0,0.75,1.0,MANUAL_MODE,True,False,False,,,False,False,0,None,25.0,10.0
1765888688.2568152,35.13159394264221,-0.07819438058912458,0.005076758900324847,0.1064816556071122,0.0,0.0,0.0,0.75,1.0,MANUAL_MODE,True,False,False,,,False,False,0,None,25.0,10.0
1765888688.3663104,35.241087436676025,-0.07738610168720267,0.004489113303998782,0.1018105173116064,0.0,0.0,0.0,0.75,1.0,MANUAL_MODE,True,False,False,,,False,False,0,None,25.0,10.0
1765888688.4663286,35.341105699539185,-0.0773861012527597,0.004489112988144349,0.10179973722398117,0.0,0.0,0.0,0.75,1.0,MANUAL_MODE,True,False,False,,,False,False,0,None,25.0,10.0
1765888688.5763514,35.45112895965576,-0.07786026776430383,0.005097503966669276,0.10514658680587807,0.0,0.0,0.0,0.75,1.0,MANUAL_MODE,True,False,False,,,False,False,0,None,25.0,10.0
1765888688.67638,35.55115818977356,-0.07777376547229141,0.0049795156453255164,0.10301209946703249,0.0,0.0,0.0,0.75,1.0,MANUAL_MODE,True,False,False,,,False,False,0,None,25.0,10.0
1765888688.776394,35.65117168426514,-0.07777376542579725,0.0049795155819079145,0.10300359033535234,0.0,0.0,0.0,0.75,1.0,MANUAL_MODE,True,False,False,,,False,False,0,None,25.0,10.0
1765888688.876427,35.75120449066162,-0.07801989850342438,0.0056617200202645915,0.09987356052396823,0.0,0.0,0.0,0.75,1.0,MANUAL_MODE,True,False,False,,,False,False,0,None,25.0,10.0
1765888688.98674,35.861517906188965,-0.0774844269606679,0.005117227005358473,0.10213263004545325,0.0,0.0,0.0,0.75,1.0,MANUAL_MODE,True,False,False,,,False,False,0,None,25.0,10.0
1765888689.0868266,35.96160697937012,-0.07738026637332669,0.0054027814017411704,0.10162667058597563,0.0,0.0,0.0,0.75,1.0,MANUAL_MODE,True,False,False,,,False,False,0,None,25.0,10.0
