timestamp,time,x,y,th,v,u,delta,v_ref,yolo_gain,state,gps_valid,platoon_enabled,platoon_is_leader,platoon_position,platoon_leader_id,platoon_setup_complete,v2v_active,v2v_peers,v2v_protocol,v2v_local_rate,v2v_fleet_rate
1765899538.7745543,2.015495538711548,0.0,0.0,0.0,0.0,0.0,0.0,0.75,1.0,INITIALIZING,False,False,False,,,False,False,0,None,25.0,10.0
1765899539.0761578,2.317098617553711,-0.42287956561054796,-0.049200711046716944,1.311345959993064,0.0,0.0,0.0,0.75,1.0,WAITING_FOR_START,True,False,False,,,False,False,0,None,25.0,10.0
1765899539.180044,2.420984983444214,-0.422022330647708,-0.04743908240969466,1.3062189786419411,0.0,0.0,0.0,0.75,1.0,WAITING_FOR_START,True,False,False,,,False,False,0,None,25.0,10.0
1765899539.2899706,2.530911445617676,-0.4221371883589372,-0.0478995001221745,1.3076549972976572,0.0,0.0,0.0,0.75,1.0,WAITING_FOR_START,True,False,False,,,False,False,0,None,25.0,10.0
1765899539.3900144,2.630955219268799,-0.4221371885205632,-0.04789950077006314,1.3077012623318502,0.0,0.0,0.0,0.75,1.0,WAITING_FOR_START,True,False,False,,,False,False,0,None,25.0,10.0
1765899539.5001082,2.74104905128479,-0.422414637726187,-0.048436338235510135,1.3032644948057266,0.0,0.0,0.0,0.75,1.0,WAITING_FOR_START,True,False,False,,,False,False,0,None,25.0,10.0
1765899539.6099067,2.8508474826812744,-0.42288929432526123,-0.0493974080479966,1.304539867266965,0.0,0.0,0.0,0.75,1.0,WAITING_FOR_START,True,False,False,,,False,False,0,None,25.0,10.0
1765899539.7099082,2.9508490562438965,-0.4232652433817975,-0.04970618293783965,1.307710325276239,0.0,0.0,0.0,0.75,1.0,WAITING_FOR_START,True,False,False,,,False,False,0,None,25.0,10.0
1765899539.8200445,3.0609853267669678,-0.42331561290331154,-0.04973088445135275,1.3096896096619233,0.0,0.0,0.0,0.75,1.0,WAITING_FOR_START,True,False,False,,,False,False,0,None,25.0,10.0
1765899539.920202,3.161142587661743,-0.4231600491351906,-0.04927133299627256,1.3096654916520398,0.0,0.0,0.0,0.75,1.0,WAITING_FOR_START,True,False,False,,,False,False,0,None,25.0,10.0
1765899540.0207708,3.261711835861206,-0.42315666575023436,-0.049261338127508415,1.3096404739497363,0.0,0.0,0.0,0.75,1.0,WAITING_FOR_START,True,False,False,,,False,False,0,None,25.0,10.0
1765899540.1299887,3.370929479598999,-0.42329850075387454,-0.04903992723649778,1.310191980932463,0.0,0.0,0.0,0.75,1.0,WAITING_FOR_START,True,False,False,,,False,False,0,None,25.0,10.0
1765899540.230015,3.470956325531006,-0.4230221143648853,-0.04857392079104459,1.3076306456262312,0.0,0.0,0.0,0.75,1.0,WAITING_FOR_START,True,False,False,,,False,False,0,None,25.0,10.0
1765899540.3400657,3.5810065269470215,-0.4230198392218674,-0.048570115688564355,1.306927783726275,0.0,0.0,0.0,0.75,1.0,WAITING_FOR_START,True,False,False,,,False,False,0,None,25.0,10.0
1765899540.4405622,3.6815032958984375,-0.42323561994598097,-0.049122900344398444,1.306946210392593,0.0,0.0,0.0,0.75,1.0,WAITING_FOR_START,True,False,False,,,False,False,0,None,25.0,10.0
1765899540.5499892,3.7909305095672607,-0.42323587621793346,-0.049123556859031976,1.3069631204323642,0.0,0.0,0.0,0.75,1.0,WAITING_FOR_START,True,False,False,,,False,False,0,None,25.0,10.0
1765899540.650377,3.8913209438323975,-0.42267234926363634,-0.04881751905753294,1.305643028895279,0.0,0.0,0.0,0.75,1.0,WAITING_FOR_START,True,False,False,,,False,False,0,None,25.0,10.0
1765899540.7604527,4.001394271850586,-0.4227973102942528,-0.049563361304199284,1.3085505880915855,0.0,0.0,0.0,0.75,1.0,WAITING_FOR_START,True,False,False,,,False,False,0,None,25.0,10.0
1765899540.8700352,4.110976219177246,-0.4227973185724595,-0.049563410621974106,1.3086688375893765,0.0,0.0,0.0,0.75,1.0,WAITING_FOR_START,True,False,False,,,False,False,0,None,25.0,10.0
1765899540.9804838,4.221425533294678,-0.42306192551377336,-0.04974172400067032,1.309363226136261,0.0,0.0,0.0,0.75,1.0,WAITING_FOR_START,True,False,False,,,False,False,0,None,25.0,10.0
1765899541.0900478,4.330988883972168,-0.4229447837018276,-0.05064331820467985,1.307609266321598,0.0,0.0,0.0,0.75,1.0,WAITING_FOR_START,True,False,False,,,False,False,0,None,25.0,10.0
1765899541.201192,4.442134141921997,-0.4229087613416035,-0.05056621415040108,1.3083762878248493,0.0,0.0,0.0,0.75,1.0,WAITING_FOR_START,True,False,False,,,False,False,0,None,25.0,10.0
1765899541.30992,4.55086088180542,-0.42288649840507714,-0.05051856044987283,1.31070333717663,0.0,0.0,0.0,0.75,1.0,WAITING_FOR_START,True,False,False,,,False,False,0,None,25.0,10.0
1765899541.4099398,4.650880575180054,-0.42316164648552995,-0.050263908272507506,1.3098232093323938,0.0,0.0,0.0,0.75,1.0,WAITING_FOR_START,True,False,False,,,False,False,0,None,25.0,10.0
1765899541.5100443,4.750985145568848,-0.42281744705910285,-0.050229205297140096,1.3080203474801628,0.0,0.0,0.0,0.75,1.0,WAITING_FOR_START,True,False,False,,,False,False,0,None,25.0,10.0
1765899541.6202707,4.8612120151519775,-0.4227506220996234,-0.05023070794385653,1.3071220479819612,0.0,0.0,0.0,0.75,1.0,WAITING_FOR_START,True,False,False,,,False,False,0,None,25.0,10.0
1765899541.720421,4.961361885070801,-0.4230701316187319,-0.050491089861569714,1.3049140809493913,0.0,0.0,0.0,0.75,1.0,WAITING_FOR_START,True,False,False,,,False,False,0,None,25.0,10.0
1765899541.82994,5.070881128311157,-0.42307708069217476,-0.05049675295744221,1.3040494731512187,0.0,0.0,0.0,0.75,1.0,WAITING_FOR_START,True,False,False,,,False,False,0,None,25.0,10.0
1765899541.940157,5.181097745895386,-0.4231346512072122,-0.05011292335129618,1.3005272276349347,0.0,0.0,0.0,0.75,1.0,WAITING_FOR_START,True,False,False,,,False,False,0,None,25.0,10.0
1765899542.049903,5.290843725204468,-0.42294863311372666,-0.049799326081291624,1.2963759596526652,0.0,0.0,0.0,0.75,1.0,WAITING_FOR_START,True,False,False,,,False,False,0,None,25.0,10.0
1765899542.149935,5.390876054763794,-0.42294854875906923,-0.049799184131374456,1.2961443441843992,0.0,0.0,0.0,0.75,1.0,WAITING_FOR_START,True,False,False,,,False,False,0,None,25.0,10.0
1765899542.2600834,5.50102424621582,-0.4232699798413711,-0.049472091330731584,1.2984789535051036,0.0,0.0,0.0,0.75,1.0,WAITING_FOR_START,True,False,False,,,False,False,0,None,25.0,10.0
1765899542.370028,5.610968828201294,-0.4232700010916036,-0.04947206970619537,1.2986142661327698,0.0,0.0,0.0,0.75,1.0,WAITING_FOR_START,True,False,False,,,False,False,0,None,25.0,10.0
1765899542.4801672,5.7211079597473145,-0.4223953196394433,-0.049713494662476515,1.3023109742470877,0.0,0.0,0.0,0.75,1.0,WAITING_FOR_START,True,False,False,,,False,False,0,None,25.0,10.0
1765899542.5899992,5.830940008163452,-0.42275257493647167,-0.04913204060389262,1.2998234971258382,0.0,0.0,0.0,0.75,1.0,WAITING_FOR_START,True,False,False,,,False,False,0,None,25.0,10.0
1765899542.7004073,5.941348075866699,-0.4225524134171333,-0.04947465534281532,1.300149527485745,0.0,0.0,0.0,0.75,1.0,WAITING_FOR_START,True,False,False,,,False,False,0,None,25.0,10.0
1765899542.8099036,6.050844430923462,-0.4224566873500915,-0.050222367911466594,1.3010308329923017,0.0,0.0,0.0,0.75,1.0,WAITING_FOR_START,True,False,False,,,False,False,0,None,25.0,10.0
1765899542.9099185,6.150859355926514,-0.42246146702029447,-0.05031392158139761,1.3008313883406641,0.0,0.0,0.0,0.75,1.0,WAITING_FOR_START,True,False,False,,,False,False,0,None,25.0,10.0
1765899543.010076,6.251017332077026,-0.42218154147302045,-0.05043300421447792,1.3025621517721797,0.0,0.0,0.0,0.75,1.0,WAITING_FOR_START,True,False,False,,,False,False,0,None,25.0,10.0
1765899543.1200924,6.361033201217651,-0.42213372448426534,-0.05045334594668885,1.304632645483907,0.0,0.0,0.0,0.75,1.0,WAITING_FOR_START,True,False,False,,,False,False,0,None,25.0,10.0
1765899543.2204077,6.461348533630371,-0.42310750669724323,-0.05097628713470158,1.3058048033179954,0.0,0.0,0.0,0.75,1.0,WAITING_FOR_START,True,False,False,,,False,False,0,None,25.0,10.0
1765899543.329902,6.570842742919922,-0.4229107690518387,-0.05016356200773446,1.3034648808737135,0.0,0.0,0.0,0.75,1.0,WAITING_FOR_START,True,False,False,,,False,False,0,None,25.0,10.0
1765899543.4400797,6.681020498275757,-0.4229089827354742,-0.05015680665322568,1.3027150935576826,0.0,0.0,0.0,0.75,1.0,WAITING_FOR_START,True,False,False,,,False,False,0,None,25.0,10.0
1765899543.550165,6.7911057472229,-0.4231477190365813,-0.050978390178084906,1.305480933858295,0.0,0.0,0.0,0.75,1.0,WAITING_FOR_START,True,False,False,,,False,False,0,None,25.0,10.0
1765899543.6602402,6.901180744171143,-0.4231478272579465,-0.05097876260946737,1.3056956082098807,0.0,0.0,0.0,0.75,1.0,WAITING_FOR_START,True,False,False,,,False,False,0,None,25.0,10.0
1765899543.7699049,7.01084566116333,-0.4221800125313786,-0.05049912757500395,1.2997504824975632,0.0,0.0,0.0,0.75,1.0,WAITING_FOR_START,True,False,False,,,False,False,0,None,25.0,10.0
1765899543.880035,7.120975971221924,-0.4226174210740551,-0.05073937631490694,1.3038894505812015,0.0,0.0,0.0,0.75,1.0,WAITING_FOR_START,True,False,False,,,False,False,0,None,25.0,10.0
1765899543.9800384,7.2209792137146,-0.42261742268556773,-0.05073937720003328,1.3039535532986335,0.0,0.0,0.0,0.75,1.0,WAITING_FOR_START,True,False,False,,,False,False,0,None,25.0,10.0
1765899544.0800416,7.320982456207275,-0.4230971308649608,-0.050571246845901606,1.3015385419051615,0.0,0.0,0.0,0.75,1.0,WAITING_FOR_START,True,False,False,,,False,False,0,None,25.0,10.0
1765899544.1898992,7.430840015411377,-0.423097132632219,-0.05057124622650475,1.3015203869443575,0.0,0.0,0.0,0.75,1.0,WAITING_FOR_START,True,False,False,,,False,False,0,None,25.0,10.0
1765899544.289907,7.530847787857056,-0.42298834539282437,-0.05038409976532467,1.29751943956044,0.0,0.0,0.0,0.75,1.0,WAITING_FOR_START,True,False,False,,,False,False,0,None,25.0,10.0
1765899544.3899534,7.630894184112549,-0.42326253593062246,-0.050488134272850864,1.3034507820551973,0.0,0.0,0.0,0.75,1.0,WAITING_FOR_START,True,False,False,,,False,False,0,None,25.0,10.0
1765899544.4900017,7.730942487716675,-0.42326253631645516,-0.050488134419245295,1.3034999936525278,0.0,0.0,0.0,0.75,1.0,WAITING_FOR_START,True,False,False,,,False,False,0,None,25.0,10.0
1765899544.5900278,7.830968618392944,-0.42315741252653283,-0.05058551936564448,1.3061947041263329,0.0,0.0,0.0,0.75,1.0,WAITING_FOR_START,True,False,False,,,False,False,0,None,25.0,10.0
1765899544.6900375,7.930978298187256,-0.4231574123786059,-0.05058551950268162,1.3061836685546995,0.0,0.0,0.0,0.75,1.0,WAITING_FOR_START,True,False,False,,,False,False,0,None,25.0,10.0
1765899544.8002589,8.041199684143066,-0.42350624447969903,-0.050884415764802376,1.3018255885058787,0.0,0.0,0.0,0.75,1.0,WAITING_FOR_START,True,False,False,,,False,False,0,None,25.0,10.0
1765899544.9098997,8.150840759277344,-0.42360801748645166,-0.0507548331692755,1.3010625372130917,0.0,0.0,0.0,0.75,1.0,WAITING_FOR_START,True,False,False,,,False,False,0,None,25.0,10.0
1765899545.0099018,8.250842571258545,-0.42321587494893487,-0.050620850684483576,1.3013161571279621,0.0,0.0,0.0,0.75,1.0,WAITING_FOR_START,True,False,False,,,False,False,0,None,25.0,10.0
1765899545.1099074,8.350848197937012,-0.4237938424699417,-0.05169237741532165,1.302265567307801,0.0,0.0,0.0,0.75,1.0,WAITING_FOR_START,True,False,False,,,False,False,0,None,25.0,10.0
1765899545.2200422,8.460983037948608,-0.4239040136240161,-0.05187932555923946,1.3030584839185728,0.0,0.0,0.0,0.75,1.0,WAITING_FOR_START,True,False,False,,,False,False,0,None,25.0,10.0
1765899545.3201244,8.561064958572388,-0.4238063175580644,-0.051772511914992304,1.3016700578800444,0.0,0.0,0.0,0.75,1.0,WAITING_FOR_START,True,False,False,,,False,False,0,None,25.0,10.0
1765899545.4299068,8.67084789276123,-0.4238041927475481,-0.05177018880439973,1.301115589925124,0.0,0.0,0.0,0.75,1.0,WAITING_FOR_START,True,False,False,,,False,False,0,None,25.0,10.0
1765899545.5400336,8.780974388122559,-0.4232454625201698,-0.05226430130930925,1.3020386780478344,0.0,0.0,0.0,0.75,1.0,WAITING_FOR_START,True,False,False,,,False,False,0,None,25.0,10.0
1765899545.6400568,8.880997657775879,-0.42335319690387613,-0.0525157847285595,1.3062195251575375,0.0,0.0,0.0,0.75,1.0,WAITING_FOR_START,True,False,False,,,False,False,0,None,25.0,10.0
1765899545.7401183,8.981059074401855,-0.4233533256423007,-0.052516082706078486,1.3066825719821926,0.0,0.0,0.0,0.75,1.0,WAITING_FOR_START,True,False,False,,,False,False,0,None,25.0,10.0
1765899545.8499033,9.09084415435791,-0.42379096338007877,-0.05289659158707041,1.3114682069890566,0.0,0.0,0.0,0.75,1.0,WAITING_FOR_START,True,False,False,,,False,False,0,None,25.0,10.0
1765899545.9600031,9.200943946838379,-0.42379116176529785,-0.05289676407525226,1.3117943874259552,0.0,0.0,0.0,0.75,1.0,WAITING_FOR_START,True,False,False,,,False,False,0,None,25.0,10.0
1765899546.0600476,9.30098843574524,-0.42375941346574464,-0.05220638271456213,1.3124156561959586,0.0,0.0,0.0,0.75,1.0,WAITING_FOR_START,True,False,False,,,False,False,0,None,25.0,10.0
1765899546.1602015,9.401142835617065,-0.4241943153005354,-0.052618489830760166,1.3148812324428887,0.0,0.0,0.0,0.75,1.0,WAITING_FOR_START,True,False,False,,,False,False,0,None,25.0,10.0
1765899546.269935,9.510875701904297,-0.42419434405260664,-0.05261851707869778,1.3149162593769912,0.0,0.0,0.0,0.75,1.0,WAITING_FOR_START,True,False,False,,,False,False,0,None,25.0,10.0
1765899546.3800976,9.621038436889648,-0.42373503823908637,-0.05315661044474767,1.3186936379162102,0.0,0.0,0.0,0.75,1.0,WAITING_FOR_START,True,False,False,,,False,False,0,None,25.0,10.0
1765899546.480341,9.72128176689148,-0.4237350365469917,-0.05315661242709777,1.3186757378982117,0.0,0.0,0.0,0.75,1.0,WAITING_FOR_START,True,False,False,,,False,False,0,None,25.0,10.0
1765899546.5899146,9.830855369567871,-0.423315807622577,-0.052283123183215326,1.312344337251612,0.0,0.0,0.0,0.75,1.0,WAITING_FOR_START,True,False,False,,,False,False,0,None,25.0,10.0
1765899546.690149,9.931089878082275,-0.4231696274887119,-0.05155677439924425,1.3133018516152166,0.0,0.0,0.0,0.75,1.0,WAITING_FOR_START,True,False,False,,,False,False,0,None,25.0,10.0
1765899546.8002348,10.041175603866577,-0.4231036734424779,-0.05148145954463984,1.3141211807421662,0.0,0.0,0.0,0.75,1.0,WAITING_FOR_START,True,False,False,,,False,False,0,None,25.0,10.0
1765899546.9098275,10.150768518447876,-0.42387447380616117,-0.05153758715519304,1.3172281590384722,0.0,0.0,0.0,0.75,1.0,WAITING_FOR_START,True,False,False,,,False,False,0,None,25.0,10.0
1765899547.0099325,10.25087308883667,-0.42401310507530127,-0.051555125967939,1.3180849203102607,0.0,0.0,0.0,0.75,1.0,WAITING_FOR_START,True,False,False,,,False,False,0,None,25.0,10.0
1765899547.1099875,10.350928783416748,-0.4235571349374489,-0.052202932274810245,1.3182158383753597,0.0,0.0,0.0,0.75,1.0,WAITING_FOR_START,True,False,False,,,False,False,0,None,25.0,10.0
1765899547.2201023,10.461043357849121,-0.4234792459325704,-0.052313590792611754,1.3183780117667467,0.0,0.0,0.0,0.75,1.0,WAITING_FOR_START,True,False,False,,,False,False,0,None,25.0,10.0
1765899547.3298988,10.570839643478394,-0.42347496645498495,-0.05238879450490001,1.3203116908103105,0.0,0.0,0.0,0.75,1.0,WAITING_FOR_START,True,False,False,,,False,False,0,None,25.0,10.0
1765899547.4300292,10.670969724655151,-0.4239902647866356,-0.05283137102697364,1.322383926664859,0.0,0.0,0.0,0.75,1.0,WAITING_FOR_START,True,False,False,,,False,False,0,None,25.0,10.0
1765899547.540135,10.781075716018677,-0.42399448911217064,-0.0528349938918869,1.3227499737958972,0.0,0.0,0.0,0.75,1.0,WAITING_FOR_START,True,False,False,,,False,False,0,None,25.0,10.0
1765899547.6499,10.890840768814087,-0.4235437626664968,-0.05266174085882124,1.3191211082890408,0.0,0.0,0.0,0.75,1.0,WAITING_FOR_START,True,False,False,,,False,False,0,None,25.0,10.0
1765899547.749989,10.990930080413818,-0.42354355834813945,-0.052661662321660856,1.3188125267449493,0.0,0.0,0.0,0.75,1.0,WAITING_FOR_START,True,False,False,,,False,False,0,None,25.0,10.0
1765899547.8602445,11.101185321807861,-0.42397866035142884,-0.05286988070597716,1.3230350489055844,0.0,0.0,0.0,0.75,1.0,WAITING_FOR_START,True,False,False,,,False,False,0,None,25.0,10.0
1765899547.9698994,11.210840463638306,-0.42357093364408677,-0.053116923637243144,1.3216174282202262,0.0,0.0,0.0,0.75,1.0,WAITING_FOR_START,True,False,False,,,False,False,0,None,25.0,10.0
1765899548.0700965,11.311037302017212,-0.42357092334776286,-0.05311692987503783,1.3215525416432499,0.0,0.0,0.0,0.75,1.0,WAITING_FOR_START,True,False,False,,,False,False,0,None,25.0,10.0
1765899548.1800668,11.421007633209229,-0.4233223099304082,-0.052215903844044745,1.3247556182389317,0.0,0.0,0.0,0.75,1.0,WAITING_FOR_START,True,False,False,,,False,False,0,None,25.0,10.0
1765899548.2900534,11.530994176864624,-0.4233223090145095,-0.05221590052464006,1.3247653673640452,0.0,0.0,0.0,0.75,1.0,WAITING_FOR_START,True,False,False,,,False,False,0,None,25.0,10.0
1765899548.4000716,11.64101243019104,-0.42360958617564715,-0.05287000140852345,1.3233333388464432,0.0,0.0,0.0,0.75,1.0,WAITING_FOR_START,True,False,False,,,False,False,0,None,25.0,10.0
1765899548.50018,11.741121292114258,-0.42344140953364273,-0.05264329567133899,1.322178824737538,0.0,0.0,0.0,0.75,1.0,WAITING_FOR_START,True,False,False,,,False,False,0,None,25.0,10.0
1765899548.6003852,11.841326236724854,-0.42377992217306243,-0.05267543248735254,1.322717939840519,0.0,0.0,0.0,0.75,1.0,WAITING_FOR_START,True,False,False,,,False,False,0,None,25.0,10.0
1765899548.709899,11.950839519500732,-0.42398913450275943,-0.052695294203170165,1.3243338362865824,0.0,0.0,0.0,0.75,1.0,WAITING_FOR_START,True,False,False,,,False,False,0,None,25.0,10.0
1765899548.809901,12.050841808319092,-0.42382667109625627,-0.05301383252976214,1.3224337254399945,0.0,0.0,0.0,0.75,1.0,WAITING_FOR_START,True,False,False,,,False,False,0,None,25.0,10.0
1765899548.90991,12.150851011276245,-0.42367896837226016,-0.05302371065145683,1.3196474041314588,0.0,0.0,0.0,0.75,1.0,WAITING_FOR_START,True,False,False,,,False,False,0,None,25.0,10.0
1765899549.0099325,12.250873327255249,-0.4236584783479781,-0.05301610325143467,1.3190457719573834,0.0,0.0,0.0,0.75,1.0,WAITING_FOR_START,True,False,False,,,False,False,0,None,25.0,10.0
1765899549.1202252,12.36116647720337,-0.4233681678478191,-0.0524546652734088,1.3177741825156808,0.0,0.0,0.0,0.75,1.0,WAITING_FOR_START,True,False,False,,,False,False,0,None,25.0,10.0
1765899549.2203786,12.4613196849823,-0.4225199657455218,-0.05262818194260037,1.3187810804045226,0.0,0.0,0.0,0.75,1.0,WAITING_FOR_START,True,False,False,,,False,False,0,None,25.0,10.0
1765899549.3205214,12.56146240234375,-0.4225016553640226,-0.05263222135713954,1.3194084878767338,0.0,0.0,0.0,0.75,1.0,WAITING_FOR_START,True,False,False,,,False,False,0,None,25.0,10.0
1765899549.4209638,12.661904573440552,-0.42287533766841934,-0.05261354641240805,1.3179665965558094,0.0,0.0,0.0,0.75,1.0,WAITING_FOR_START,True,False,False,,,False,False,0,None,25.0,10.0
1765899549.5301375,12.77107834815979,-0.42288346495617773,-0.052613140247434305,1.317396994132432,0.0,0.0,0.0,0.75,1.0,WAITING_FOR_START,True,False,False,,,False,False,0,None,25.0,10.0
1765899549.6402302,12.881171226501465,-0.4225529168861503,-0.05251086470302144,1.319529157084605,0.0,0.0,0.0,0.75,1.0,WAITING_FOR_START,True,False,False,,,False,False,0,None,25.0,10.0
1765899549.7402418,12.98118257522583,-0.42272918707502444,-0.052276886780486004,1.32010846999093,0.0,0.0,0.0,0.75,1.0,WAITING_FOR_START,True,False,False,,,False,False,0,None,25.0,10.0
1765899549.8499362,13.090877056121826,-0.422729396888325,-0.05227660904082869,1.3201358518867696,0.0,0.0,0.0,0.75,1.0,WAITING_FOR_START,True,False,False,,,False,False,0,None,25.0,10.0
1765899549.9602342,13.201175451278687,-0.4221421969675235,-0.0529212345848039,1.322444718107671,0.0,0.0,0.0,0.75,1.0,STOPPED,True,False,False,,,False,False,0,None,25.0,10.0
1765899550.069909,13.310850143432617,-0.4221421581469627,-0.05292127720184836,1.3225129430064841,0.0,0.0,0.0,0.75,1.0,STOPPED,True,False,False,,,False,False,0,None,25.0,10.0
1765899550.1801722,13.421113014221191,-0.4227920793532569,-0.052688612524324135,1.323192196366616,0.0,0.0,0.0,0.75,1.0,STOPPED,True,False,False,,,False,False,0,None,25.0,10.0
1765899550.2900188,13.530959367752075,-0.42281601868118623,-0.05289425933315026,1.3240481658119823,0.0,0.0,0.0,0.75,1.0,STOPPED,True,False,False,,,False,False,0,None,25.0,10.0
1765899550.3901129,13.631053686141968,-0.42281601871487007,-0.052894259622531234,1.3240285842056343,0.0,0.0,0.0,0.75,1.0,STOPPED,True,False,False,,,False,False,0,None,25.0,10.0
1765899550.5004945,13.741435766220093,-0.4231598005981652,-0.05292752956610528,1.3257934407794068,0.0,0.0,0.0,0.75,1.0,STOPPED,True,False,False,,,False,False,0,None,25.0,10.0
1765899550.6099136,13.850854635238647,-0.4230285045012516,-0.05355863379741375,1.3257670764921086,0.0,0.0,0.0,0.75,1.0,STOPPED,True,False,False,,,False,False,0,None,25.0,10.0
1765899550.7099187,13.950859546661377,-0.42285229167870647,-0.05329953956824495,1.324364740342002,0.0,0.0,0.0,0.75,1.0,STOPPED,True,False,False,,,False,False,0,None,25.0,10.0
1765899550.8099327,14.050873756408691,-0.42282602210560444,-0.053236865718570094,1.3227038012821462,0.0,0.0,0.0,0.75,1.0,STOPPED,True,False,False,,,False,False,0,None,25.0,10.0
1765899550.920438,14.161379098892212,-0.42300081213045904,-0.05388114524770533,1.3233401753953284,0.0,0.0,0.0,0.75,1.0,STOPPED,True,False,False,,,False,False,0,None,25.0,10.0
1765899551.0205452,14.261486530303955,-0.42319621236782134,-0.054252219250591156,1.3246621959899558,0.0,0.0,0.0,0.75,1.0,STOPPED,True,False,False,,,False,False,0,None,25.0,10.0
1765899551.1205325,14.361473560333252,-0.42320037948499556,-0.0542599850529349,1.3250848942632096,0.0,0.0,0.0,0.75,1.0,STOPPED,True,False,False,,,False,False,0,None,25.0,10.0
1765899551.2299182,14.470859050750732,-0.4233288565666875,-0.05386356697538674,1.32466866047832,0.0,0.0,0.0,0.75,1.0,STOPPED,True,False,False,,,False,False,0,None,25.0,10.0
1765899551.340044,14.580985069274902,-0.42332990972760737,-0.05386031743053882,1.3245537183638234,0.0,0.0,0.0,0.75,1.0,STOPPED,True,False,False,,,False,False,0,None,25.0,10.0
1765899551.44005,14.68099069595337,-0.4233219002424153,-0.05391713497584002,1.3281882194175552,0.0,0.0,0.0,0.75,1.0,STOPPED,True,False,False,,,False,False,0,None,25.0,10.0
1765899551.5401766,14.78111743927002,-0.42319974395103366,-0.05411571835275202,1.3264689280378317,0.0,0.0,0.0,0.75,1.0,STOPPED,True,False,False,,,False,False,0,None,25.0,10.0
1765899551.6499026,14.890843391418457,-0.4231995988834205,-0.05411595412017131,1.326186356311883,0.0,0.0,0.0,0.75,1.0,STOPPED,True,False,False,,,False,False,0,None,25.0,10.0
1765899551.7600527,15.000993490219116,-0.4232809673784615,-0.054161301067019565,1.3274246851775224,0.0,0.0,0.0,0.75,1.0,STOPPED,True,False,False,,,False,False,0,None,25.0,10.0
1765899551.860193,15.101133823394775,-0.42328097275783816,-0.054161304064965,1.327461877020065,0.0,0.0,0.0,0.75,1.0,STOPPED,True,False,False,,,False,False,0,None,25.0,10.0
1765899551.9698977,15.210838556289673,-0.4235529080303749,-0.05386260240161992,1.327941430210812,0.0,0.0,0.0,0.75,1.0,STOPPED,True,False,False,,,False,False,0,None,25.0,10.0
1765899552.0699313,15.310872077941895,-0.42320996152286716,-0.0540665193667978,1.3275901141306683,0.0,0.0,0.0,0.75,1.0,STOPPED,True,False,False,,,False,False,0,None,25.0,10.0
1765899552.1800382,15.420979499816895,-0.42320995286287016,-0.054066524516142064,1.3275691734497803,0.0,0.0,0.0,0.75,1.0,STOPPED,True,False,False,,,False,False,0,None,25.0,10.0
1765899552.2801938,15.521134614944458,-0.4235170913936793,-0.05478717514305591,1.3289384797637442,0.0,0.0,0.0,0.75,1.0,STOPPED,True,False,False,,,False,False,0,None,25.0,10.0
1765899552.389899,15.630839824676514,-0.42351709252518616,-0.05478717779795264,1.3289405618553118,0.0,0.0,0.0,0.75,1.0,STOPPED,True,False,False,,,False,False,0,None,25.0,10.0
1765899552.5000963,15.741037368774414,-0.42310618960271845,-0.054634527260318054,1.3260244453460661,0.0,0.0,0.0,0.75,1.0,STOPPED,True,False,False,,,False,False,0,None,25.0,10.0
1765899552.6099002,15.850841045379639,-0.42302242919074057,-0.05477395582715026,1.324462186120452,0.0,0.0,0.0,0.75,1.0,STOPPED,True,False,False,,,False,False,0,None,25.0,10.0
1765899552.709902,15.95084261894226,-0.42285547143910607,-0.05463751018729848,1.3228601957774604,0.0,0.0,0.0,0.75,1.0,STOPPED,True,False,False,,,False,False,0,None,25.0,10.0
1765899552.820031,16.06097173690796,-0.42284504350805385,-0.054666057538901705,1.322746080122677,0.0,0.0,0.0,0.75,1.0,STOPPED,True,False,False,,,False,False,0,None,25.0,10.0
1765899552.920077,16.161017894744873,-0.4228454369888307,-0.05466718534210383,1.323504519890971,0.0,0.0,0.0,0.75,1.0,STOPPED,True,False,False,,,False,False,0,None,25.0,10.0
1765899553.0202694,16.261210203170776,-0.42371683735440724,-0.05500553844215297,1.3232682931249045,0.0,0.0,0.0,0.75,1.0,STOPPED,True,False,False,,,False,False,0,None,25.0,10.0
1765899553.1298978,16.37083864212036,-0.4237357896067678,-0.055012897348096196,1.323177714587242,0.0,0.0,0.0,0.75,1.0,STOPPED,True,False,False,,,False,False,0,None,25.0,10.0
1765899553.2301052,16.471045970916748,-0.4237917723088432,-0.055945347514220395,1.3239436196036554,0.0,0.0,0.0,0.75,1.0,STOPPED,True,False,False,,,False,False,0,None,25.0,10.0
1765899553.3404038,16.581344604492188,-0.4236913984652921,-0.05528270837553206,1.3235018409678405,0.0,0.0,0.0,0.75,1.0,STOPPED,True,False,False,,,False,False,0,None,25.0,10.0
1765899553.449898,16.690839052200317,-0.42369127871132567,-0.05528191231498141,1.323425588046085,0.0,0.0,0.0,0.75,1.0,STOPPED,True,False,False,,,False,False,0,None,25.0,10.0
1765899553.549903,16.790843725204468,-0.42394210120967635,-0.0571388209030846,1.325709168765127,0.0,0.0,0.0,0.75,1.0,STOPPED,True,False,False,,,False,False,0,None,25.0,10.0
1765899553.6499002,16.890841245651245,-0.42394221490977385,-0.057139662656471545,1.325887314100589,0.0,0.0,0.0,0.75,1.0,STOPPED,True,False,False,,,False,False,0,None,25.0,10.0
1765899553.7499018,16.990842819213867,-0.42421019001082577,-0.05698340134250914,1.331126068731253,0.0,0.0,0.0,0.75,1.0,STOPPED,True,False,False,,,False,False,0,None,25.0,10.0
1765899553.8499162,17.09085702896118,-0.42404513902784763,-0.056354563782362865,1.3285768847869468,0.0,0.0,0.0,0.75,1.0,STOPPED,True,False,False,,,False,False,0,None,25.0,10.0
1765899553.9600327,17.200973510742188,-0.4240450641537155,-0.056354278756574415,1.3282827189814315,0.0,0.0,0.0,0.75,1.0,STOPPED,True,False,False,,,False,False,0,None,25.0,10.0
1765899554.060289,17.30122971534729,-0.42411895449877274,-0.057138184621607635,1.3256744826836817,0.0,0.0,0.0,0.75,1.0,STOPPED,True,False,False,,,False,False,0,None,25.0,10.0
1765899554.169928,17.410869121551514,-0.4241189593837609,-0.05713823644665772,1.3255758763498466,0.0,0.0,0.0,0.75,1.0,STOPPED,True,False,False,,,False,False,0,None,25.0,10.0
1765899554.2800357,17.520976781845093,-0.42441091725011126,-0.0567885924931734,1.3235850858155587,0.0,0.0,0.0,0.75,1.0,STOPPED,True,False,False,,,False,False,0,None,25.0,10.0
1765899554.3900332,17.630974054336548,-0.4247366492080448,-0.057265965279902326,1.3169747845524018,0.0,0.0,0.0,0.75,1.0,STOPPED,True,False,False,,,False,False,0,None,25.0,10.0
1765899554.500036,17.7409770488739,-0.42474131385595576,-0.05694451847522432,1.3180505811412937,0.0,0.0,0.0,0.75,1.0,STOPPED,True,False,False,,,False,False,0,None,25.0,10.0
1765899554.600045,17.840986013412476,-0.42474419648207945,-0.05674585311597704,1.3212234497774586,0.0,0.0,0.0,0.75,1.0,STOPPED,True,False,False,,,False,False,0,None,25.0,10.0
1765899554.7099023,17.95084285736084,-0.4247876008299838,-0.056661144857112836,1.3224020788935062,0.0,0.0,0.0,0.75,1.0,STOPPED,True,False,False,,,False,False,0,None,25.0,10.0
1765899554.8200376,18.060978412628174,-0.42485884097325294,-0.0560128212454392,1.3227135334849098,0.0,0.0,0.0,0.75,1.0,STOPPED,True,False,False,,,False,False,0,None,25.0,10.0
1765899554.929898,18.170838832855225,-0.42486022913322397,-0.05599903543885368,1.3222759051458066,0.0,0.0,0.0,0.75,1.0,STOPPED,True,False,False,,,False,False,0,None,25.0,10.0
1765899555.040026,18.280966997146606,-0.4260458149024344,-0.05650058169123411,1.3231218352286884,0.0,0.0,0.0,0.75,1.0,STOPPED,True,False,False,,,False,False,0,None,25.0,10.0
1765899555.140304,18.381245136260986,-0.42500965936237173,-0.05668390651194983,1.3258691917714271,0.0,0.0,0.0,0.75,1.0,STOPPED,True,False,False,,,False,False,0,None,25.0,10.0
1765899555.2498713,18.490812063217163,-0.42500842710083736,-0.05668412353053541,1.3261607398767534,0.0,0.0,0.0,0.75,1.0,STOPPED,True,False,False,,,False,False,0,None,25.0,10.0
1765899555.3600426,18.600983381271362,-0.42511170448383173,-0.05622293487829971,1.3268140041725731,0.0,0.0,0.0,0.75,1.0,STOPPED,True,False,False,,,False,False,0,None,25.0,10.0
1765899555.46005,18.700990915298462,-0.42511171131163344,-0.0562229043885201,1.3268112926167568,0.0,0.0,0.0,0.75,1.0,STOPPED,True,False,False,,,False,False,0,None,25.0,10.0
1765899555.560072,18.801012754440308,-0.4259490180323719,-0.05690043062563469,1.3252006656493416,0.0,0.0,0.0,0.75,1.0,STOPPED,True,False,False,,,False,False,0,None,25.0,10.0
1765899555.669878,18.910819053649902,-0.42548385850283105,-0.05668711647228363,1.330440174661243,0.0,0.0,0.0,0.75,1.0,STOPPED,True,False,False,,,False,False,0,None,25.0,10.0
1765899555.7800362,19.02097725868225,-0.42548384675558604,-0.056687111084713186,1.3305442147333766,0.0,0.0,0.0,0.75,1.0,STOPPED,True,False,False,,,False,False,0,None,25.0,10.0
1765899555.8801012,19.121041774749756,-0.4257748568239637,-0.0559252392352638,1.3253420460463126,0.0,0.0,0.0,0.75,1.0,STOPPED,True,False,False,,,False,False,0,None,25.0,10.0
1765899555.9898677,19.2308087348938,-0.4257748578960528,-0.05592523642850695,1.3252804063769137,0.0,0.0,0.0,0.75,1.0,STOPPED,True,False,False,,,False,False,0,None,25.0,10.0
1765899556.1000326,19.340973377227783,-0.42558733337693794,-0.055766789749518805,1.3254307988086342,0.0,0.0,0.0,0.75,1.0,STOPPED,True,False,False,,,False,False,0,None,25.0,10.0
1765899556.2000515,19.44099235534668,-0.4257683276163678,-0.05571578766679922,1.3258240637252339,0.0,0.0,0.0,0.75,1.0,STOPPED,True,False,False,,,False,False,0,None,25.0,10.0
1765899556.3000934,19.54103446006775,-0.42580072322119666,-0.05574310600069095,1.3257422867047914,0.0,0.0,0.0,0.75,1.0,STOPPED,True,False,False,,,False,False,0,None,25.0,10.0
1765899556.4099014,19.65084218978882,-0.42582074474183257,-0.05575998967302801,1.3254777296980853,0.0,0.0,0.0,0.75,1.0,STOPPED,True,False,False,,,False,False,0,None,25.0,10.0
1765899556.5099022,19.750843286514282,-0.4257806322313216,-0.05584030686773358,1.3272351217840805,0.0,0.0,0.0,0.75,1.0,STOPPED,True,False,False,,,False,False,0,None,25.0,10.0
1765899556.6099815,19.850922107696533,-0.4258706624316976,-0.056142947981825654,1.3272113674054404,0.0,0.0,0.0,0.75,1.0,STOPPED,True,False,False,,,False,False,0,None,25.0,10.0
1765899556.7202058,19.961146593093872,-0.42588721188772277,-0.056192301636656526,1.3246574604526735,0.0,0.0,0.0,0.75,1.0,STOPPED,True,False,False,,,False,False,0,None,25.0,10.0
1765899556.8299048,20.07084584236145,-0.42588092460579335,-0.0563329188916057,1.322669287407492,0.0,0.0,0.0,0.75,1.0,STOPPED,True,False,False,,,False,False,0,None,25.0,10.0
1765899556.9300692,20.17101001739502,-0.4258627569641278,-0.05725109112183872,1.322174399244025,0.0,0.0,0.0,0.75,1.0,STOPPED,True,False,False,,,False,False,0,None,25.0,10.0
1765899557.040136,20.28107738494873,-0.4258626084615661,-0.05725860817655666,1.3222131796926675,0.0,0.0,0.0,0.75,1.0,STOPPED,True,False,False,,,False,False,0,None,25.0,10.0
1765899557.149897,20.390838146209717,-0.426718364191569,-0.05767423825097651,1.321041599980485,0.0,0.0,0.0,0.75,1.0,STOPPED,True,False,False,,,False,False,0,None,25.0,10.0
1765899557.249928,20.49086856842041,-0.42671875211334864,-0.05767442665983227,1.3209686986362872,0.0,0.0,0.0,0.75,1.0,STOPPED,True,False,False,,,False,False,0,None,25.0,10.0
1765899557.3600452,20.60098624229431,-0.4259039196937019,-0.05800980030099599,1.3177328619618338,0.0,0.0,0.0,0.75,1.0,STOPPED,True,False,False,,,False,False,0,None,25.0,10.0
1765899557.460124,20.701064825057983,-0.42586517946944685,-0.05851957888727824,1.3210853232727384,0.0,0.0,0.0,0.75,1.0,STOPPED,True,False,False,,,False,False,0,None,25.0,10.0
1765899557.5601568,20.801097869873047,-0.42586517691181286,-0.058519612587947474,1.3212446297686862,0.0,0.0,0.0,0.75,1.0,STOPPED,True,False,False,,,False,False,0,None,25.0,10.0
1765899557.660342,20.901282787322998,-0.42514942397187444,-0.05789135207667945,1.3185873346213928,0.0,0.0,0.0,0.75,1.0,STOPPED,True,False,False,,,False,False,0,None,25.0,10.0
1765899557.7699602,21.01090097427368,-0.4251493766525041,-0.05789131054154888,1.318498935503274,0.0,0.0,0.0,0.75,1.0,STOPPED,True,False,False,,,False,False,0,None,25.0,10.0
1765899557.8700233,21.110963821411133,-0.42508633172487925,-0.057415884885893755,1.3153532467512896,0.0,0.0,0.0,0.75,1.0,STOPPED,True,False,False,,,False,False,0,None,25.0,10.0
1765899557.980032,21.220972776412964,-0.42499672120570053,-0.05770957591997211,1.3141898015357265,0.0,0.0,0.0,0.75,1.0,STOPPED,True,False,False,,,False,False,0,None,25.0,10.0
1765899558.0803099,21.321250677108765,-0.42499672087557877,-0.057709577001980886,1.314224006109983,0.0,0.0,0.0,0.75,1.0,STOPPED,True,False,False,,,False,False,0,None,25.0,10.0
1765899558.180443,21.42138409614563,-0.4255946933719416,-0.05767933350566277,1.3181702599533498,0.0,0.0,0.0,0.75,1.0,STOPPED,True,False,False,,,False,False,0,None,25.0,10.0
1765899558.2898977,21.53083848953247,-0.4255946955748887,-0.05767933339424489,1.3182199557243646,0.0,0.0,0.0,0.75,1.0,STOPPED,True,False,False,,,False,False,0,None,25.0,10.0
1765899558.3900025,21.630943298339844,-0.4255871687272408,-0.05773794658282466,1.313573354133485,0.0,0.0,0.0,0.75,1.0,STOPPED,True,False,False,,,False,False,0,None,25.0,10.0
1765899558.4903011,21.731242656707764,-0.4249133254216391,-0.05692242534367504,1.312685165064317,0.0,0.0,0.0,0.75,1.0,STOPPED,True,False,False,,,False,False,0,None,25.0,10.0
1765899558.6004164,21.841357469558716,-0.4250525918642174,-0.05692914079419867,1.3136159973830202,0.0,0.0,0.0,0.75,1.0,STOPPED,True,False,False,,,False,False,0,None,25.0,10.0
1765899558.7099802,21.950921058654785,-0.42512867622212336,-0.056959164802289575,1.3152827251183687,0.0,0.0,0.0,0.75,1.0,STOPPED,True,False,False,,,False,False,0,None,25.0,10.0
1765899558.8200526,22.060993671417236,-0.42512697015323636,-0.056963584425681404,1.3140623297187561,0.0,0.0,0.0,0.75,1.0,STOPPED,True,False,False,,,False,False,0,None,25.0,10.0
1765899558.929898,22.170838832855225,-0.42513534365265754,-0.057302519529204426,1.3133126991067545,0.0,0.0,0.0,0.75,1.0,STOPPED,True,False,False,,,False,False,0,None,25.0,10.0
1765899559.0299332,22.27087426185608,-0.42513541229243734,-0.05730529786945547,1.313128001030175,0.0,0.0,0.0,0.75,1.0,STOPPED,True,False,False,,,False,False,0,None,25.0,10.0
1765899559.1402729,22.381213665008545,-0.4247820948533376,-0.05665057906110427,1.3123562869179786,0.0,0.0,0.0,0.75,1.0,STOPPED,True,False,False,,,False,False,0,None,25.0,10.0
1765899559.250014,22.490955352783203,-0.42481924422496886,-0.0567657057592483,1.3103683802186392,0.0,0.0,0.0,0.75,1.0,STOPPED,True,False,False,,,False,False,0,None,25.0,10.0
1765899559.3604403,22.601381301879883,-0.42481926125525166,-0.05676575829956445,1.3102421910814828,0.0,0.0,0.0,0.75,1.0,STOPPED,True,False,False,,,False,False,0,None,25.0,10.0
1765899559.4699335,22.710874319076538,-0.42511390132801996,-0.05632397741070355,1.3111319251192812,0.0,0.0,0.0,0.75,1.0,STOPPED,True,False,False,,,False,False,0,None,25.0,10.0
1765899559.5801308,22.82107138633728,-0.4251139087680495,-0.05632396625518478,1.3111735229283195,0.0,0.0,0.0,0.75,1.0,STOPPED,True,False,False,,,False,False,0,None,25.0,10.0
1765899559.6804805,22.92142128944397,-0.42583871826751124,-0.05565358608969735,1.3081897474834339,0.0,0.0,0.0,0.75,1.0,STOPPED,True,False,False,,,False,False,0,None,25.0,10.0
1765899559.7900345,23.030976057052612,-0.4251264342729141,-0.05588499778442107,1.3046163169488487,0.0,0.0,0.0,0.75,1.0,STOPPED,True,False,False,,,False,False,0,None,25.0,10.0
1765899559.9001737,23.141114711761475,-0.4253885505893001,-0.05628284238879822,1.3059008999328094,0.0,0.0,0.0,0.75,1.0,STOPPED,True,False,False,,,False,False,0,None,25.0,10.0
1765899560.0003023,23.241243362426758,-0.42555054791422087,-0.056528723543129496,1.3096624376940804,0.0,0.0,0.0,0.75,1.0,STOPPED,True,False,False,,,False,False,0,None,25.0,10.0
1765899560.1099,23.35084080696106,-0.42535628385482793,-0.0562679996366163,1.3086955198792314,0.0,0.0,0.0,0.75,1.0,STOPPED,True,False,False,,,False,False,0,None,25.0,10.0
1765899560.2099087,23.450849533081055,-0.4249987128788748,-0.05583078405143887,1.3065881594367985,0.0,0.0,0.0,0.75,1.0,STOPPED,True,False,False,,,False,False,0,None,25.0,10.0
1765899560.3100069,23.550947666168213,-0.42494330102444755,-0.0557637065461888,1.305488750471988,0.0,0.0,0.0,0.75,1.0,STOPPED,True,False,False,,,False,False,0,None,25.0,10.0
1765899560.4201143,23.661055088043213,-0.424984710234181,-0.05632121236995577,1.308903239476793,0.0,0.0,0.0,0.75,1.0,STOPPED,True,False,False,,,False,False,0,None,25.0,10.0
1765899560.5299935,23.770934581756592,-0.4249856108516108,-0.05633333767098588,1.310268207399644,0.0,0.0,0.0,0.75,1.0,STOPPED,True,False,False,,,False,False,0,None,25.0,10.0
1765899560.640129,23.881069898605347,-0.4258433114846374,-0.05664539120702184,1.305926049021859,0.0,0.0,0.0,0.75,1.0,STOPPED,True,False,False,,,False,False,0,None,25.0,10.0
1765899560.7401767,23.981117486953735,-0.4261893005292986,-0.05716942633057644,1.3058649641755196,0.0,0.0,0.0,0.75,1.0,STOPPED,True,False,False,,,False,False,0,None,25.0,10.0
1765899560.849926,24.090866804122925,-0.4261897102338985,-0.057170048260874906,1.305945112098092,0.0,0.0,0.0,0.75,1.0,STOPPED,True,False,False,,,False,False,0,None,25.0,10.0
1765899560.9499676,24.190908432006836,-0.4255125320473757,-0.05629009440129497,1.3074123881214232,0.0,0.0,0.0,0.75,1.0,STOPPED,True,False,False,,,False,False,0,None,25.0,10.0
1765899561.0600324,24.300973415374756,-0.42541519013261014,-0.05706516196297287,1.307536028864864,0.0,0.0,0.0,0.75,1.0,STOPPED,True,False,False,,,False,False,0,None,25.0,10.0
1765899561.1601758,24.401116371154785,-0.42541518371748016,-0.05706521323003398,1.307530833668693,0.0,0.0,0.0,0.75,1.0,STOPPED,True,False,False,,,False,False,0,None,25.0,10.0
1765899561.2698975,24.510838270187378,-0.4257453259922782,-0.05715683290622973,1.30457556939818,0.0,0.0,0.0,0.75,1.0,STOPPED,True,False,False,,,False,False,0,None,25.0,10.0
1765899561.369903,24.610843896865845,-0.4257453343287788,-0.057156835219739834,1.304511344301833,0.0,0.0,0.0,0.75,1.0,STOPPED,True,False,False,,,False,False,0,None,25.0,10.0
1765899561.4699056,24.710846424102783,-0.4264180770877419,-0.057720357203967905,1.3076289396352703,0.0,0.0,0.0,0.75,1.0,STOPPED,True,False,False,,,False,False,0,None,25.0,10.0
1765899561.5699065,24.810847520828247,-0.42625726050128854,-0.057046195807107895,1.305497350246993,0.0,0.0,0.0,0.75,1.0,STOPPED,True,False,False,,,False,False,0,None,25.0,10.0
1765899561.6699104,24.91085147857666,-0.4262572564400511,-0.05704617878334744,1.305436401243167,0.0,0.0,0.0,0.75,1.0,STOPPED,True,False,False,,,False,False,0,None,25.0,10.0
1765899561.7801266,25.02106738090515,-0.42608051393829477,-0.056233049249937925,1.304577160552637,0.0,0.0,0.0,0.75,1.0,STOPPED,True,False,False,,,False,False,0,None,25.0,10.0
1765899561.880127,25.121067762374878,-0.4260805132871707,-0.05623304625434735,1.3045790670544415,0.0,0.0,0.0,0.75,1.0,STOPPED,True,False,False,,,False,False,0,None,25.0,10.0
1765899561.980142,25.221083164215088,-0.4258975467648419,-0.05675136147087834,1.3080331111402517,0.0,0.0,0.0,0.75,1.0,STOPPED,True,False,False,,,False,False,0,None,25.0,10.0
1765899562.0802202,25.321161031723022,-0.4263890354903479,-0.05705449555986527,1.3111568847524362,0.0,0.0,0.0,0.75,1.0,STOPPED,True,False,False,,,False,False,0,None,25.0,10.0
1765899562.1804502,25.421391248703003,-0.42638903730100736,-0.057054496676613206,1.3111501581852867,0.0,0.0,0.0,0.75,1.0,STOPPED,True,False,False,,,False,False,0,None,25.0,10.0
1765899562.2899063,25.53084707260132,-0.42619933159637996,-0.0572640300190512,1.3128852913402884,0.0,0.0,0.0,0.75,1.0,STOPPED,True,False,False,,,False,False,0,None,25.0,10.0
1765899562.4000943,25.641035079956055,-0.4257895002885717,-0.05759458370438257,1.3122168160770356,0.0,0.0,0.0,0.75,1.0,STOPPED,True,False,False,,,False,False,0,None,25.0,10.0
1765899562.5099015,25.750842094421387,-0.42612258549320803,-0.05752620070424273,1.3113463838438877,0.0,0.0,0.0,0.75,1.0,STOPPED,True,False,False,,,False,False,0,None,25.0,10.0
1765899562.6099865,25.850927352905273,-0.4262227501383272,-0.05747962211745167,1.3125834826198908,0.0,0.0,0.0,0.75,1.0,STOPPED,True,False,False,,,False,False,0,None,25.0,10.0
1765899562.7201526,25.961093425750732,-0.4261661154053038,-0.05744028252159885,1.3110692250519644,0.0,0.0,0.0,0.75,1.0,STOPPED,True,False,False,,,False,False,0,None,25.0,10.0
1765899562.8298955,26.070836305618286,-0.42607065398998684,-0.05746266639686378,1.306543232371986,0.0,0.0,0.0,0.75,1.0,STOPPED,True,False,False,,,False,False,0,None,25.0,10.0
1765899562.929897,26.170837879180908,-0.4260698815644535,-0.05746285689681492,1.3055491240204287,0.0,0.0,0.0,0.75,1.0,STOPPED,True,False,False,,,False,False,0,None,25.0,10.0
1765899563.0299008,26.270841598510742,-0.4263193694004893,-0.05775630731371051,1.3108788911079747,0.0,0.0,0.0,0.75,1.0,STOPPED,True,False,False,,,False,False,0,None,25.0,10.0
1765899563.1300309,26.3709716796875,-0.4263214145179518,-0.05775871280401535,1.3122704218905064,0.0,0.0,0.0,0.75,1.0,STOPPED,True,False,False,,,False,False,0,None,25.0,10.0
1765899563.2403588,26.48129963874817,-0.42632810709689933,-0.05817254844267268,1.3128834547858652,0.0,0.0,0.0,0.75,1.0,STOPPED,True,False,False,,,False,False,0,None,25.0,10.0
1765899563.3498998,26.590840578079224,-0.4263494164127956,-0.05730934317963623,1.3102269546862306,0.0,0.0,0.0,0.75,1.0,STOPPED,True,False,False,,,False,False,0,None,25.0,10.0
1765899563.4600313,26.700971841812134,-0.42634942606890336,-0.057308951658039696,1.3099939142401364,0.0,0.0,0.0,0.75,1.0,STOPPED,True,False,False,,,False,False,0,None,25.0,10.0
1765899563.560166,26.801106691360474,-0.4261935593482286,-0.05758717902530037,1.3106013575383368,0.0,0.0,0.0,0.75,1.0,STOPPED,True,False,False,,,False,False,0,None,25.0,10.0
1765899563.6698956,26.910836458206177,-0.42619354904367424,-0.05758719741927838,1.3106280965967203,0.0,0.0,0.0,0.75,1.0,STOPPED,True,False,False,,,False,False,0,None,25.0,10.0
1765899563.7698963,27.010837078094482,-0.4261468354907557,-0.057623996240125985,1.3127283596693697,0.0,0.0,0.0,0.75,1.0,STOPPED,True,False,False,,,False,False,0,None,25.0,10.0
1765899563.8700426,27.1109836101532,-0.42697387899769856,-0.057839354265623366,1.310369816890658,0.0,0.0,0.0,0.75,1.0,STOPPED,True,False,False,,,False,False,0,None,25.0,10.0
1765899563.9701896,27.211132526397705,-0.42697389988159884,-0.05783935970365681,1.3103008727163319,0.0,0.0,0.0,0.75,1.0,STOPPED,True,False,False,,,False,False,0,None,25.0,10.0
1765899564.0801322,27.321073293685913,-0.42714046777214437,-0.05845622944712361,1.304651929134863,0.0,0.0,0.0,0.75,1.0,STOPPED,True,False,False,,,False,False,0,None,25.0,10.0
1765899564.1801596,27.4211003780365,-0.42714046838578484,-0.05845623171968795,1.304625990578816,0.0,0.0,0.0,0.75,1.0,STOPPED,True,False,False,,,False,False,0,None,25.0,10.0
1765899564.2803397,27.521281003952026,-0.4270701037295432,-0.05823870944809277,1.3108388509913658,0.0,0.0,0.0,0.75,1.0,STOPPED,True,False,False,,,False,False,0,None,25.0,10.0
1765899564.3805044,27.621445178985596,-0.42755615532513264,-0.05769378137013686,1.3099087053894136,0.0,0.0,0.0,0.75,1.0,STOPPED,True,False,False,,,False,False,0,None,25.0,10.0
1765899564.4900236,27.730965614318848,-0.42755615711576095,-0.057693779362609346,1.3098771303291388,0.0,0.0,0.0,0.75,1.0,STOPPED,True,False,False,,,False,False,0,None,25.0,10.0
1765899564.5900302,27.830971240997314,-0.42714978991949776,-0.05854487003044214,1.3121769582689025,0.0,0.0,0.0,0.75,1.0,STOPPED,True,False,False,,,False,False,0,None,25.0,10.0
1765899564.700132,27.941072940826416,-0.4265118185775585,-0.05842754806883111,1.3127153602845194,0.0,0.0,0.0,0.75,1.0,STOPPED,True,False,False,,,False,False,0,None,25.0,10.0
1765899564.800363,28.041303873062134,-0.4261508016010566,-0.058164021314448,1.3134238329581596,0.0,0.0,0.0,0.75,1.0,STOPPED,True,False,False,,,False,False,0,None,25.0,10.0
1765899564.9099574,28.150898218154907,-0.4261713636422917,-0.05804596624363358,1.3107253619499337,0.0,0.0,0.0,0.75,1.0,STOPPED,True,False,False,,,False,False,0,None,25.0,10.0
1765899565.0100968,28.251038074493408,-0.4263209855832976,-0.05884177697349637,1.311982684826119,0.0,0.0,0.0,0.75,1.0,STOPPED,True,False,False,,,False,False,0,None,25.0,10.0
