timestamp,time,x,y,th,v,u,delta,v_ref,yolo_gain,state,gps_valid,platoon_enabled,platoon_is_leader,platoon_position,platoon_leader_id,platoon_setup_complete,v2v_active,v2v_peers,v2v_protocol,v2v_local_rate,v2v_fleet_rate
1765899589.4041896,2.0168325901031494,0.0,0.0,0.0,0.0,0.0,0.0,0.75,1.0,INITIALIZING,False,False,False,,,False,False,0,None,25.0,10.0
1765899589.7061121,2.3187551498413086,-0.42775705805205344,-0.0599184312907119,1.3343633318522325,0.0,0.0,0.0,0.75,1.0,WAITING_FOR_START,True,False,False,,,False,False,0,None,25.0,10.0
1765899589.8083825,2.421025037765503,-0.42853191548900943,-0.061170596194988894,1.343307539268153,0.0,0.0,0.0,0.75,1.0,WAITING_FOR_START,True,False,False,,,False,False,0,None,25.0,10.0
1765899589.9180522,2.5306947231292725,-0.4281755954651811,-0.06084860918906147,1.3460041892291823,0.0,0.0,0.0,0.75,1.0,WAITING_FOR_START,True,False,False,,,False,False,0,None,25.0,10.0
1765899590.0282087,2.6408512592315674,-0.4281678457819518,-0.06084160621809083,1.3470353680877905,0.0,0.0,0.0,0.75,1.0,WAITING_FOR_START,True,False,False,,,False,False,0,None,25.0,10.0
1765899590.1284711,2.7411136627197266,-0.4281006877345487,-0.06118445045119507,1.348777301707778,0.0,0.0,0.0,0.75,1.0,WAITING_FOR_START,True,False,False,,,False,False,0,None,25.0,10.0
1765899590.228913,2.8415563106536865,-0.42799121083347214,-0.06110920773051316,1.3507956945124242,0.0,0.0,0.0,0.75,1.0,WAITING_FOR_START,True,False,False,,,False,False,0,None,25.0,10.0
1765899590.3382046,2.9508471488952637,-0.42799087149541803,-0.06110896457363045,1.3509972377569621,0.0,0.0,0.0,0.75,1.0,WAITING_FOR_START,True,False,False,,,False,False,0,None,25.0,10.0
1765899590.448679,3.06132173538208,-0.4286189731893889,-0.06135505007249052,1.3501589705861248,0.0,0.0,0.0,0.75,1.0,WAITING_FOR_START,True,False,False,,,False,False,0,None,25.0,10.0
1765899590.558193,3.1708357334136963,-0.4286190819139144,-0.06135509266993829,1.3500659569017213,0.0,0.0,0.0,0.75,1.0,WAITING_FOR_START,True,False,False,,,False,False,0,None,25.0,10.0
1765899590.668251,3.2808938026428223,-0.4284049654933503,-0.06179591063240325,1.3536149122968073,0.0,0.0,0.0,0.75,1.0,WAITING_FOR_START,True,False,False,,,False,False,0,None,25.0,10.0
1765899590.7780952,3.3907382488250732,-0.4284424769036948,-0.0616078343470015,1.3492394129387666,0.0,0.0,0.0,0.75,1.0,WAITING_FOR_START,True,False,False,,,False,False,0,None,25.0,10.0
1765899590.8781052,3.4907476902008057,-0.4284424772655105,-0.06160783253297245,1.3491409746527774,0.0,0.0,0.0,0.75,1.0,WAITING_FOR_START,True,False,False,,,False,False,0,None,25.0,10.0
1765899590.9885173,3.6011600494384766,-0.4289432522734076,-0.06190839608317641,1.3530125370168022,0.0,0.0,0.0,0.75,1.0,WAITING_FOR_START,True,False,False,,,False,False,0,None,25.0,10.0
1765899591.09836,3.711002826690674,-0.4291906814695468,-0.061887706264603506,1.3523312410126271,0.0,0.0,0.0,0.75,1.0,WAITING_FOR_START,True,False,False,,,False,False,0,None,25.0,10.0
1765899591.208225,3.8208675384521484,-0.4287499659477331,-0.0613893019749964,1.3479792000846276,0.0,0.0,0.0,0.75,1.0,WAITING_FOR_START,True,False,False,,,False,False,0,None,25.0,10.0
1765899591.3082306,3.9208734035491943,-0.42871493142530676,-0.061360642323037146,1.3464798432289928,0.0,0.0,0.0,0.75,1.0,WAITING_FOR_START,True,False,False,,,False,False,0,None,25.0,10.0
1765899591.408538,4.021180629730225,-0.42959349877546366,-0.060957016895631246,1.3480971702933484,0.0,0.0,0.0,0.75,1.0,WAITING_FOR_START,True,False,False,,,False,False,0,None,25.0,10.0
1765899591.5180554,4.1306984424591064,-0.4300071726933065,-0.060840465918702284,1.3506368819109342,0.0,0.0,0.0,0.75,1.0,WAITING_FOR_START,True,False,False,,,False,False,0,None,25.0,10.0
1765899591.6181343,4.230776786804199,-0.430015042069989,-0.06083844910721333,1.3512251026255084,0.0,0.0,0.0,0.75,1.0,WAITING_FOR_START,True,False,False,,,False,False,0,None,25.0,10.0
1765899591.7181711,4.330813884735107,-0.4297008970950696,-0.06081658175055568,1.3536085682929624,0.0,0.0,0.0,0.75,1.0,WAITING_FOR_START,True,False,False,,,False,False,0,None,25.0,10.0
1765899591.818171,4.430813789367676,-0.42968235721256726,-0.06081529120564845,1.3551483572202487,0.0,0.0,0.0,0.75,1.0,WAITING_FOR_START,True,False,False,,,False,False,0,None,25.0,10.0
1765899591.928232,4.540874481201172,-0.4300378843919078,-0.061201083374590355,1.3540699095055695,0.0,0.0,0.0,0.75,1.0,WAITING_FOR_START,True,False,False,,,False,False,0,None,25.0,10.0
1765899592.0380468,4.650689363479614,-0.429844986638497,-0.06123738442942356,1.3570513159997075,0.0,0.0,0.0,0.75,1.0,WAITING_FOR_START,True,False,False,,,False,False,0,None,25.0,10.0
1765899592.1380875,4.750730276107788,-0.42984437662696595,-0.061237487666573207,1.3575937806112597,0.0,0.0,0.0,0.75,1.0,WAITING_FOR_START,True,False,False,,,False,False,0,None,25.0,10.0
1765899592.2482064,4.860848903656006,-0.4300614766451724,-0.061281098740513164,1.35801168830894,0.0,0.0,0.0,0.75,1.0,WAITING_FOR_START,True,False,False,,,False,False,0,None,25.0,10.0
1765899592.3482096,4.960852146148682,-0.43006157505856607,-0.061281118509805735,1.3580129686174347,0.0,0.0,0.0,0.75,1.0,WAITING_FOR_START,True,False,False,,,False,False,0,None,25.0,10.0
1765899592.448313,5.060956001281738,-0.4294109433593506,-0.061059862480865,1.360053329722736,0.0,0.0,0.0,0.75,1.0,WAITING_FOR_START,True,False,False,,,False,False,0,None,25.0,10.0
1765899592.5580542,5.17069673538208,-0.4294825450707018,-0.06129447084855615,1.3563441022031872,0.0,0.0,0.0,0.75,1.0,WAITING_FOR_START,True,False,False,,,False,False,0,None,25.0,10.0
1765899592.6682312,5.280873775482178,-0.42948255748444575,-0.06129451146593721,1.3561150760082805,0.0,0.0,0.0,0.75,1.0,WAITING_FOR_START,True,False,False,,,False,False,0,None,25.0,10.0
1765899592.778049,5.390691757202148,-0.42968926314393263,-0.06177042527854235,1.360047503427836,0.0,0.0,0.0,0.75,1.0,WAITING_FOR_START,True,False,False,,,False,False,0,None,25.0,10.0
1765899592.8781185,5.490761041641235,-0.4296892639054417,-0.06177042703182135,1.3600772322277876,0.0,0.0,0.0,0.75,1.0,WAITING_FOR_START,True,False,False,,,False,False,0,None,25.0,10.0
1765899592.9784744,5.591118812561035,-0.4291066377819903,-0.06171957538768801,1.3616363373854954,0.0,0.0,0.0,0.75,1.0,WAITING_FOR_START,True,False,False,,,False,False,0,None,25.0,10.0
1765899593.0882201,5.700862646102905,-0.4292405804267713,-0.06109218242533726,1.3611146898420143,0.0,0.0,0.0,0.75,1.0,WAITING_FOR_START,True,False,False,,,False,False,0,None,25.0,10.0
1765899593.188262,5.800904750823975,-0.42924058061525416,-0.06109218154248919,1.3610858398394186,0.0,0.0,0.0,0.75,1.0,WAITING_FOR_START,True,False,False,,,False,False,0,None,25.0,10.0
1765899593.2882645,5.900907039642334,-0.4293297431358545,-0.061796890788797736,1.3599425349127436,0.0,0.0,0.0,0.75,1.0,WAITING_FOR_START,True,False,False,,,False,False,0,None,25.0,10.0
1765899593.3884933,6.001136064529419,-0.42932544648847104,-0.06187692453821691,1.3576697913752005,0.0,0.0,0.0,0.75,1.0,WAITING_FOR_START,True,False,False,,,False,False,0,None,25.0,10.0
1765899593.4981334,6.110776424407959,-0.42926232486414984,-0.06234109175609889,1.35851292258155,0.0,0.0,0.0,0.75,1.0,WAITING_FOR_START,True,False,False,,,False,False,0,None,25.0,10.0
1765899593.6083324,6.220974922180176,-0.42922331355938076,-0.06262796282413115,1.3610229725074348,0.0,0.0,0.0,0.75,1.0,WAITING_FOR_START,True,False,False,,,False,False,0,None,25.0,10.0
1765899593.718152,6.3307945728302,-0.42933219159158953,-0.06200867219470302,1.3596044598374517,0.0,0.0,0.0,0.75,1.0,WAITING_FOR_START,True,False,False,,,False,False,0,None,25.0,10.0
1765899593.8181536,6.4307966232299805,-0.42942213916163346,-0.06255707970773192,1.360594599699855,0.0,0.0,0.0,0.75,1.0,WAITING_FOR_START,True,False,False,,,False,False,0,None,25.0,10.0
1765899593.9282098,6.540852308273315,-0.4294240439477009,-0.06256930006267154,1.3612165933505125,0.0,0.0,0.0,0.75,1.0,WAITING_FOR_START,True,False,False,,,False,False,0,None,25.0,10.0
1765899594.0283344,6.640976905822754,-0.42960940836304434,-0.06280571258671215,1.358346186630433,0.0,0.0,0.0,0.75,1.0,WAITING_FOR_START,True,False,False,,,False,False,0,None,25.0,10.0
1765899594.1380792,6.7507219314575195,-0.42960998582775,-0.06280644908129725,1.3578498099341605,0.0,0.0,0.0,0.75,1.0,WAITING_FOR_START,True,False,False,,,False,False,0,None,25.0,10.0
1765899594.238085,6.850728273391724,-0.42968086233210795,-0.06295861981634371,1.363442050720094,0.0,0.0,0.0,0.75,1.0,WAITING_FOR_START,True,False,False,,,False,False,0,None,25.0,10.0
1765899594.3484435,6.961086273193359,-0.42976831478357413,-0.0630283090857229,1.3626875139144197,0.0,0.0,0.0,0.75,1.0,WAITING_FOR_START,True,False,False,,,False,False,0,None,25.0,10.0
1765899594.4580767,7.070719242095947,-0.42976832990704616,-0.06302832111767954,1.3625702497206014,0.0,0.0,0.0,0.75,1.0,WAITING_FOR_START,True,False,False,,,False,False,0,None,25.0,10.0
1765899594.5683255,7.180968284606934,-0.42951619185158213,-0.064203292343327,1.3630470349874324,0.0,0.0,0.0,0.75,1.0,WAITING_FOR_START,True,False,False,,,False,False,0,None,25.0,10.0
1765899594.6779742,7.290616750717163,-0.429516189419719,-0.06420330367588536,1.3630381773836326,0.0,0.0,0.0,0.75,1.0,WAITING_FOR_START,True,False,False,,,False,False,0,None,25.0,10.0
1765899594.7781036,7.390746355056763,-0.42938671633892395,-0.06378735207852805,1.3599696292008279,0.0,0.0,0.0,0.75,1.0,WAITING_FOR_START,True,False,False,,,False,False,0,None,25.0,10.0
1765899594.8884745,7.50111722946167,-0.4303560297710347,-0.06403845285744514,1.3639722166613,0.0,0.0,0.0,0.75,1.0,WAITING_FOR_START,True,False,False,,,False,False,0,None,25.0,10.0
1765899594.9886856,7.601328134536743,-0.4303560302920317,-0.06403845299241012,1.3639822050500516,0.0,0.0,0.0,0.75,1.0,WAITING_FOR_START,True,False,False,,,False,False,0,None,25.0,10.0
1765899595.098061,7.710703611373901,-0.42964641630768197,-0.06485861448258202,1.3630136079894495,0.0,0.0,0.0,0.75,1.0,WAITING_FOR_START,True,False,False,,,False,False,0,None,25.0,10.0
1765899595.1980734,7.810715913772583,-0.42946472615067544,-0.0645058803253199,1.363853370663767,0.0,0.0,0.0,0.75,1.0,WAITING_FOR_START,True,False,False,,,False,False,0,None,25.0,10.0
1765899595.2981331,7.910775899887085,-0.4295295135870338,-0.06393003109749797,1.366940093244577,0.0,0.0,0.0,0.75,1.0,WAITING_FOR_START,True,False,False,,,False,False,0,None,25.0,10.0
1765899595.4082086,8.020851373672485,-0.42963895372741656,-0.06370886905345764,1.368593388505598,0.0,0.0,0.0,0.75,1.0,WAITING_FOR_START,True,False,False,,,False,False,0,None,25.0,10.0
1765899595.5083215,8.120964527130127,-0.42987662057816034,-0.06314322467164578,1.3675062614798819,0.0,0.0,0.0,0.75,1.0,WAITING_FOR_START,True,False,False,,,False,False,0,None,25.0,10.0
1765899595.6181898,8.23083233833313,-0.4295553618665121,-0.06350552656560945,1.3680474480600955,0.0,0.0,0.0,0.75,1.0,WAITING_FOR_START,True,False,False,,,False,False,0,None,25.0,10.0
1765899595.728205,8.340847730636597,-0.4295480696892128,-0.06351413237770923,1.3685294081840569,0.0,0.0,0.0,0.75,1.0,WAITING_FOR_START,True,False,False,,,False,False,0,None,25.0,10.0
1765899595.8380456,8.450687885284424,-0.4298392904424437,-0.06343543356185534,1.3711778074983743,0.0,0.0,0.0,0.75,1.0,WAITING_FOR_START,True,False,False,,,False,False,0,None,25.0,10.0
1765899595.9380531,8.550695657730103,-0.42983963631062366,-0.06343534009524596,1.3714645524983737,0.0,0.0,0.0,0.75,1.0,WAITING_FOR_START,True,False,False,,,False,False,0,None,25.0,10.0
1765899596.03807,8.650712490081787,-0.42918980556311254,-0.06330075062339852,1.3699167792644396,0.0,0.0,0.0,0.75,1.0,WAITING_FOR_START,True,False,False,,,False,False,0,None,25.0,10.0
1765899596.148206,8.760848760604858,-0.42917927085040364,-0.06280055704777937,1.3728496298522295,0.0,0.0,0.0,0.75,1.0,WAITING_FOR_START,True,False,False,,,False,False,0,None,25.0,10.0
1765899596.2580462,8.870688676834106,-0.4291792691603761,-0.06280047049183075,1.3730028094238147,0.0,0.0,0.0,0.75,1.0,WAITING_FOR_START,True,False,False,,,False,False,0,None,25.0,10.0
1765899596.3581853,8.97082781791687,-0.429517841709563,-0.06281911657936909,1.3637767042643425,0.0,0.0,0.0,0.75,1.0,WAITING_FOR_START,True,False,False,,,False,False,0,None,25.0,10.0
1765899596.4682035,9.080846309661865,-0.4295179003165446,-0.06281911980701088,1.3632904697852295,0.0,0.0,0.0,0.75,1.0,WAITING_FOR_START,True,False,False,,,False,False,0,None,25.0,10.0
1765899596.5780475,9.190690040588379,-0.4296993551982762,-0.06244342953628344,1.3675247381562556,0.0,0.0,0.0,0.75,1.0,WAITING_FOR_START,True,False,False,,,False,False,0,None,25.0,10.0
1765899596.678116,9.290758609771729,-0.42897893421175826,-0.06192933732185306,1.3636235792483697,0.0,0.0,0.0,0.75,1.0,WAITING_FOR_START,True,False,False,,,False,False,0,None,25.0,10.0
1765899596.788225,9.400867938995361,-0.4289789315577017,-0.06192933542793436,1.3636080520701244,0.0,0.0,0.0,0.75,1.0,WAITING_FOR_START,True,False,False,,,False,False,0,None,25.0,10.0
1765899596.8882,9.500842571258545,-0.4288831635588303,-0.06269727021011488,1.3683539142214451,0.0,0.0,0.0,0.75,1.0,WAITING_FOR_START,True,False,False,,,False,False,0,None,25.0,10.0
1765899596.98841,9.60105276107788,-0.4288831635073559,-0.06269727062287253,1.368367635914213,0.0,0.0,0.0,0.75,1.0,WAITING_FOR_START,True,False,False,,,False,False,0,None,25.0,10.0
1765899597.0980752,9.710717678070068,-0.4292618164241688,-0.06276208505718646,1.3729613641572591,0.0,0.0,0.0,0.75,1.0,WAITING_FOR_START,True,False,False,,,False,False,0,None,25.0,10.0
1765899597.2082815,9.820924043655396,-0.4294089592430926,-0.06307923688261553,1.374659208979824,0.0,0.0,0.0,0.75,1.0,WAITING_FOR_START,True,False,False,,,False,False,0,None,25.0,10.0
1765899597.3180513,9.930693864822388,-0.429773260290748,-0.06340333124675758,1.375408248044172,0.0,0.0,0.0,0.75,1.0,WAITING_FOR_START,True,False,False,,,False,False,0,None,25.0,10.0
1765899597.4182475,10.030889987945557,-0.42947358818087045,-0.06295691376795398,1.37072555373598,0.0,0.0,0.0,0.75,1.0,WAITING_FOR_START,True,False,False,,,False,False,0,None,25.0,10.0
1765899597.5282023,10.14084506034851,-0.42946689823426926,-0.06294705124638608,1.3687179098525473,0.0,0.0,0.0,0.75,1.0,WAITING_FOR_START,True,False,False,,,False,False,0,None,25.0,10.0
1765899597.63805,10.25069260597229,-0.4299669685455284,-0.06247024036804906,1.3710881873031724,0.0,0.0,0.0,0.75,1.0,WAITING_FOR_START,True,False,False,,,False,False,0,None,25.0,10.0
1765899597.7483318,10.360974311828613,-0.42996756245405227,-0.062469674083593094,1.3713825788851857,0.0,0.0,0.0,0.75,1.0,WAITING_FOR_START,True,False,False,,,False,False,0,None,25.0,10.0
1765899597.8580508,10.470693349838257,-0.4295363373571936,-0.061499126220034,1.371377207355028,0.0,0.0,0.0,0.75,1.0,WAITING_FOR_START,True,False,False,,,False,False,0,None,25.0,10.0
1765899597.9585197,10.571162223815918,-0.42932360281898285,-0.061339129362697455,1.368999596044004,0.0,0.1,0.55,0.75,1.0,FOLLOWING_PATH,True,False,False,,,False,False,0,None,25.0,10.0
1765899598.068706,10.681348323822021,-0.42932358875668974,-0.06133911878930046,1.3689202833548917,0.0,0.1,0.55,0.75,1.0,FOLLOWING_PATH,True,False,False,,,False,False,0,None,25.0,10.0
1765899598.1781254,10.790767431259155,-0.4294557219221777,-0.06201186627592029,1.3695555078420742,0.0,0.1,0.55,0.75,1.0,FOLLOWING_PATH,True,False,False,,,False,False,0,None,25.0,10.0
1765899598.288364,10.901005983352661,-0.42945572240895996,-0.06201186875434085,1.3695739557703854,0.0,0.1,0.55,0.75,1.0,FOLLOWING_PATH,True,False,False,,,False,False,0,None,25.0,10.0
1765899598.3981225,11.010764837265015,-0.4296844109114317,-0.06106865202303911,1.364331470285629,0.0,0.1,0.55,0.75,1.0,FOLLOWING_PATH,True,False,False,,,False,False,0,None,25.0,10.0
1765899598.4981878,11.110830068588257,-0.42985832374223887,-0.06137544382188139,1.3682082589391689,0.0,0.1,0.55,0.75,1.0,FOLLOWING_PATH,True,False,False,,,False,False,0,None,25.0,10.0
1765899598.608465,11.221107482910156,-0.42975716500815314,-0.05995909612433218,1.365340185707102,0.0,0.1,0.55,0.75,1.0,FOLLOWING_PATH,True,False,False,,,False,False,0,None,25.0,10.0
1765899598.7085993,11.321241617202759,-0.4297511949214048,-0.05987550757542927,1.3634570350606348,0.0,0.1,0.55,0.75,1.0,FOLLOWING_PATH,True,False,False,,,False,False,0,None,25.0,10.0
1765899598.8089273,11.42156982421875,-0.4301503244204982,-0.060120035149243654,1.3624974401010181,0.0,0.1,0.55,0.75,1.0,FOLLOWING_PATH,True,False,False,,,False,False,0,None,25.0,10.0
1765899598.9183466,11.530989170074463,-0.42995870700280814,-0.06029274448753367,1.3589545340140274,0.0,0.1,0.55,0.75,1.0,FOLLOWING_PATH,True,False,False,,,False,False,0,None,25.0,10.0
1765899599.028692,11.641334295272827,-0.4299530566446965,-0.060295592314629706,1.3580558395828,0.0,0.1,0.55,0.75,1.0,FOLLOWING_PATH,True,False,False,,,False,False,0,None,25.0,10.0
1765899599.138133,11.750775337219238,-0.42990240753023956,-0.05985596472101765,1.362205797748861,0.0,0.1,0.55,0.75,1.0,FOLLOWING_PATH,True,False,False,,,False,False,0,None,25.0,10.0
1765899599.2381394,11.850781679153442,-0.4299023473768451,-0.059855442597529646,1.3627211861265316,0.0,0.1,0.55,0.75,1.0,FOLLOWING_PATH,True,False,False,,,False,False,0,None,25.0,10.0
1765899599.348257,11.960899353027344,-0.4292731293971219,-0.06057261183889758,1.363196571291617,0.0,0.1,0.55,0.75,1.0,FOLLOWING_PATH,True,False,False,,,False,False,0,None,25.0,10.0
1765899599.4581637,12.07080602645874,-0.42951550952170164,-0.06094940586563978,1.3662109278294885,0.0,0.1,0.55,0.75,1.0,FOLLOWING_PATH,True,False,False,,,False,False,0,None,25.0,10.0
1765899599.5585306,12.171172857284546,-0.4295155255529442,-0.060949430767799594,1.3663019785119461,0.0,0.1,0.55,0.75,1.0,FOLLOWING_PATH,True,False,False,,,False,False,0,None,25.0,10.0
1765899599.668338,12.280980587005615,-0.42935303777465167,-0.0604396495021224,1.3618110411290374,0.0,0.1,0.55,0.75,1.0,FOLLOWING_PATH,True,False,False,,,False,False,0,None,25.0,10.0
1765899599.7782574,12.390899658203125,-0.42858756869576553,-0.060589472578066704,1.3653552146952688,0.0,0.1,0.55,0.75,1.0,FOLLOWING_PATH,True,False,False,,,False,False,0,None,25.0,10.0
1765899599.8783088,12.49095106124878,-0.42858756587576274,-0.06058947313003596,1.3653964204649691,0.0,0.1,0.55,0.75,1.0,FOLLOWING_PATH,True,False,False,,,False,False,0,None,25.0,10.0
1765899599.9783602,12.591002464294434,-0.42902862066210706,-0.060609127812854706,1.3601147710626122,0.0,0.1,0.55,0.75,1.0,FOLLOWING_PATH,True,False,False,,,False,False,0,None,25.0,10.0
1765899600.0882785,12.700920581817627,-0.42902862228696526,-0.060609127885263105,1.3600793383936454,0.0,0.1,0.55,0.75,1.0,FOLLOWING_PATH,True,False,False,,,False,False,0,None,25.0,10.0
1765899600.1883075,12.800949573516846,-0.4290015516943845,-0.059169104984214294,1.3645358804699237,0.0,0.1,0.55,0.75,1.0,FOLLOWING_PATH,True,False,False,,,False,False,0,None,25.0,10.0
1765899600.2982209,12.910863161087036,-0.4291993713945232,-0.059457109177435026,1.3678456955572038,0.0,0.1,0.55,0.75,1.0,FOLLOWING_PATH,True,False,False,,,False,False,0,None,25.0,10.0
1765899600.4087982,13.021440505981445,-0.42942737177214924,-0.05973576937176124,1.3693989848952128,0.0,0.1,0.55,0.75,1.0,FOLLOWING_PATH,True,False,False,,,False,False,0,None,25.0,10.0
1765899600.5181403,13.13078260421753,-0.4294408276601155,-0.059752215046370155,1.3703825648729318,0.0,0.1,0.55,0.75,1.0,FOLLOWING_PATH,True,False,False,,,False,False,0,None,25.0,10.0
1765899600.6182775,13.230919599533081,-0.4290090647476801,-0.06041836331458117,1.3728624024949951,0.0,0.1,0.55,0.75,1.0,FOLLOWING_PATH,True,False,False,,,False,False,0,None,25.0,10.0
1765899600.7282639,13.340906143188477,-0.42859558074422094,-0.05973225021622113,1.3698819484407458,0.0,0.1,0.55,0.75,1.0,FOLLOWING_PATH,True,False,False,,,False,False,0,None,25.0,10.0
1765899600.8283446,13.440986633300781,-0.4285943218737,-0.05973006763889229,1.3691543687607277,0.0,0.1,0.55,0.75,1.0,FOLLOWING_PATH,True,False,False,,,False,False,0,None,25.0,10.0
1765899600.9283996,13.541041612625122,-0.4288212873345458,-0.05986753169984227,1.37276001297883,0.0,0.1,0.55,0.75,1.0,FOLLOWING_PATH,True,False,False,,,False,False,0,None,25.0,10.0
1765899601.028556,13.64119839668274,-0.428821994398519,-0.059867959940708905,1.3733731665943534,0.0,0.1,0.55,0.75,1.0,FOLLOWING_PATH,True,False,False,,,False,False,0,None,25.0,10.0
1765899601.1381228,13.750764846801758,-0.4288230364811313,-0.059201109025375044,1.3752900424786008,0.0,0.1,0.55,0.75,1.0,FOLLOWING_PATH,True,False,False,,,False,False,0,None,25.0,10.0
1765899601.238181,13.850823163986206,-0.4297117110464578,-0.060092651658886616,1.3742363010499217,0.0,0.1,0.55,0.75,1.0,FOLLOWING_PATH,True,False,False,,,False,False,0,None,25.0,10.0
1765899601.3482795,13.9609215259552,-0.4297127664793682,-0.060093711439703025,1.3740477156332647,0.0,0.1,0.55,0.75,1.0,FOLLOWING_PATH,True,False,False,,,False,False,0,None,25.0,10.0
1765899601.4581466,14.070788621902466,-0.4299069821245129,-0.059748724581364765,1.3772391144855902,0.0,0.1,0.55,0.75,1.0,FOLLOWING_PATH,True,False,False,,,False,False,0,None,25.0,10.0
1765899601.558156,14.170798301696777,-0.4298055041162128,-0.06036314504521865,1.38175198876736,0.0,0.1,0.55,0.75,1.0,FOLLOWING_PATH,True,False,False,,,False,False,0,None,25.0,10.0
1765899601.6683345,14.280977010726929,-0.4298054974065251,-0.06036318566686617,1.381848324869991,0.0,0.0,0.0,0.75,1.0,STOPPED,True,False,False,,,False,False,0,None,25.0,10.0
1765899601.778098,14.390741109848022,-0.42989125542291784,-0.061100547945171495,1.3775448224956905,0.0,0.0,0.0,0.75,1.0,STOPPED,True,False,False,,,False,False,0,None,25.0,10.0
1765899601.8883557,14.500998497009277,-0.4298912557388528,-0.06110055066163475,1.3774717689966698,0.0,0.0,0.0,0.75,1.0,STOPPED,True,False,False,,,False,False,0,None,25.0,10.0
1765899601.998052,14.610694408416748,-0.4302066351496947,-0.060271471751401226,1.3796804873212674,0.0,0.0,0.0,0.75,1.0,STOPPED,True,False,False,,,False,False,0,None,25.0,10.0
1765899602.098058,14.710700511932373,-0.4300569422720539,-0.06044265640978401,1.3799401953068173,0.0,0.0,0.0,0.75,1.0,STOPPED,True,False,False,,,False,False,0,None,25.0,10.0
1765899602.1980696,14.810712099075317,-0.4300569421915954,-0.06044265650179414,1.3799217763893896,0.0,0.0,0.0,0.75,1.0,STOPPED,True,False,False,,,False,False,0,None,25.0,10.0
1765899602.2981248,14.910767316818237,-0.4306397616692632,-0.059781328000935614,1.3744747396985009,0.0,0.0,0.0,0.75,1.0,STOPPED,True,False,False,,,False,False,0,None,25.0,10.0
1765899602.408362,15.02100658416748,-0.4300243040800284,-0.05987760724958317,1.3772589853360033,0.0,0.0,0.0,0.75,1.0,STOPPED,True,False,False,,,False,False,0,None,25.0,10.0
1765899602.5084438,15.121087074279785,-0.43000856391136866,-0.05964276379379007,1.37834239484455,0.0,0.0,0.0,0.75,1.0,STOPPED,True,False,False,,,False,False,0,None,25.0,10.0
1765899602.6180809,15.23072338104248,-0.43000977859633527,-0.0596285687026265,1.3778456605262743,0.0,0.0,0.0,0.75,1.0,STOPPED,True,False,False,,,False,False,0,None,25.0,10.0
1765899602.7181697,15.330812454223633,-0.43024917659161716,-0.060030856408262896,1.377839006213776,0.0,0.0,0.0,0.75,1.0,STOPPED,True,False,False,,,False,False,0,None,25.0,10.0
1765899602.8285384,15.441181421279907,-0.43025438330482557,-0.06003960584129556,1.3778362033104834,0.0,0.0,0.0,0.75,1.0,STOPPED,True,False,False,,,False,False,0,None,25.0,10.0
1765899602.9285762,15.541218996047974,-0.4298124082806702,-0.06022801089086962,1.3787013983738525,0.0,0.0,0.0,0.75,1.0,STOPPED,True,False,False,,,False,False,0,None,25.0,10.0
1765899603.0286076,15.641250610351562,-0.4304582896039699,-0.06025447558032952,1.3760891747800308,0.0,0.0,0.0,0.75,1.0,STOPPED,True,False,False,,,False,False,0,None,25.0,10.0
1765899603.138071,15.75071382522583,-0.4304603060030255,-0.060254556197459744,1.375611701054181,0.0,0.0,0.0,0.75,1.0,STOPPED,True,False,False,,,False,False,0,None,25.0,10.0
1765899603.248262,15.860904693603516,-0.4300609539359033,-0.05993704216648257,1.3741920998887842,0.0,0.0,0.0,0.75,1.0,STOPPED,True,False,False,,,False,False,0,None,25.0,10.0
1765899603.3580172,15.970660209655762,-0.4302270091804876,-0.06093411871696893,1.3771141232124178,0.0,0.0,0.0,0.75,1.0,STOPPED,True,False,False,,,False,False,0,None,25.0,10.0
1765899603.4682114,16.080854177474976,-0.4302270201631761,-0.0609341846386447,1.377238416495878,0.0,0.0,0.0,0.75,1.0,STOPPED,True,False,False,,,False,False,0,None,25.0,10.0
1765899603.5682218,16.180864572525024,-0.43011802793144127,-0.06099713219335916,1.3763650083531465,0.0,0.0,0.0,0.75,1.0,STOPPED,True,False,False,,,False,False,0,None,25.0,10.0
1765899603.6682243,16.280866861343384,-0.43011802688021517,-0.06099713280048603,1.3763478431576734,0.0,0.0,0.0,0.75,1.0,STOPPED,True,False,False,,,False,False,0,None,25.0,10.0
1765899603.7685125,16.381155014038086,-0.4300910040332583,-0.06041869683446365,1.3757392722919457,0.0,0.0,0.0,0.75,1.0,STOPPED,True,False,False,,,False,False,0,None,25.0,10.0
1765899603.8781092,16.49075174331665,-0.4301487423142322,-0.06014669570670408,1.3764446111759998,0.0,0.0,0.0,0.75,1.0,STOPPED,True,False,False,,,False,False,0,None,25.0,10.0
1765899603.9882517,16.60089421272278,-0.4301487425269426,-0.06014669470466372,1.3764552937402446,0.0,0.0,0.0,0.75,1.0,STOPPED,True,False,False,,,False,False,0,None,25.0,10.0
1765899604.0882516,16.700894117355347,-0.4298381108635878,-0.06060186050543525,1.374280847359329,0.0,0.0,0.0,0.75,1.0,STOPPED,True,False,False,,,False,False,0,None,25.0,10.0
1765899604.1981523,16.810794830322266,-0.43040165003605674,-0.061384347308745646,1.3745247085864492,0.0,0.0,0.0,0.75,1.0,STOPPED,True,False,False,,,False,False,0,None,25.0,10.0
1765899604.308203,16.92084550857544,-0.4302795038210348,-0.061468418843023225,1.3774061970803526,0.0,0.0,0.0,0.75,1.0,STOPPED,True,False,False,,,False,False,0,None,25.0,10.0
1765899604.4082115,17.020853996276855,-0.4302517403420057,-0.061444839732537816,1.3788075970658324,0.0,0.0,0.0,0.75,1.0,STOPPED,True,False,False,,,False,False,0,None,25.0,10.0
1765899604.5082402,17.120882749557495,-0.43006311082681437,-0.0616503595756616,1.3769254435691423,0.0,0.0,0.0,0.75,1.0,STOPPED,True,False,False,,,False,False,0,None,25.0,10.0
1765899604.618045,17.230687856674194,-0.4300519784829435,-0.061662488737344964,1.37569097369654,0.0,0.0,0.0,0.75,1.0,STOPPED,True,False,False,,,False,False,0,None,25.0,10.0
1765899604.718047,17.330689430236816,-0.43060522020048814,-0.06371037310423458,1.379454172243502,0.0,0.0,0.0,0.75,1.0,STOPPED,True,False,False,,,False,False,0,None,25.0,10.0
1765899604.828219,17.440861463546753,-0.4296343633839288,-0.06354025584590614,1.3782958636315872,0.0,0.0,0.0,0.75,1.0,STOPPED,True,False,False,,,False,False,0,None,25.0,10.0
1765899604.9284286,17.54107117652893,-0.4296313013962163,-0.06353958712961039,1.3778061158790091,0.0,0.0,0.0,0.75,1.0,STOPPED,True,False,False,,,False,False,0,None,25.0,10.0
1765899605.038047,17.650689840316772,-0.4295193975071276,-0.06368230539803398,1.379500823396901,0.0,0.0,0.0,0.75,1.0,STOPPED,True,False,False,,,False,False,0,None,25.0,10.0
1765899605.1482048,17.760847330093384,-0.42951926460447165,-0.06368247489739105,1.3796907507104441,0.0,0.0,0.0,0.75,1.0,STOPPED,True,False,False,,,False,False,0,None,25.0,10.0
1765899605.2482085,17.860851526260376,-0.429832993712287,-0.06362594496253926,1.3732683098981457,0.0,0.0,0.0,0.75,1.0,STOPPED,True,False,False,,,False,False,0,None,25.0,10.0
1765899605.3482075,17.96085000038147,-0.43038956993324395,-0.06342188002902979,1.3786410263700155,0.0,0.0,0.0,0.75,1.0,STOPPED,True,False,False,,,False,False,0,None,25.0,10.0
1765899605.4482179,18.06086039543152,-0.43038966626729286,-0.0634218447070504,1.3789854866472524,0.0,0.0,0.0,0.75,1.0,STOPPED,True,False,False,,,False,False,0,None,25.0,10.0
1765899605.5483115,18.160953998565674,-0.4300105748462557,-0.06367722991861705,1.3797143562781091,0.0,0.0,0.0,0.75,1.0,STOPPED,True,False,False,,,False,False,0,None,25.0,10.0
1765899605.658047,18.270689487457275,-0.43022032028765256,-0.06365408294322893,1.3811190043390855,0.0,0.0,0.0,0.75,1.0,STOPPED,True,False,False,,,False,False,0,None,25.0,10.0
1765899605.7581804,18.37082290649414,-0.43022035662432845,-0.06365407891646854,1.381171778208592,0.0,0.0,0.0,0.75,1.0,STOPPED,True,False,False,,,False,False,0,None,25.0,10.0
1765899605.868226,18.480868577957153,-0.4297905462197974,-0.06392522438836289,1.3841167570439161,0.0,0.0,0.0,0.75,1.0,STOPPED,True,False,False,,,False,False,0,None,25.0,10.0
1765899605.9780827,18.59072518348694,-0.42979054207429035,-0.06392522700355194,1.3841321083074138,0.0,0.0,0.0,0.75,1.0,STOPPED,True,False,False,,,False,False,0,None,25.0,10.0
1765899606.0883925,18.701035022735596,-0.43003271135480525,-0.06402330435083954,1.3865633224200664,0.0,0.0,0.0,0.75,1.0,STOPPED,True,False,False,,,False,False,0,None,25.0,10.0
1765899606.1980872,18.81072974205017,-0.42994540059083264,-0.06268932075502576,1.3807658009314867,0.0,0.0,0.0,0.75,1.0,STOPPED,True,False,False,,,False,False,0,None,25.0,10.0
1765899606.3083227,18.920965433120728,-0.42977689903313954,-0.06331792965591326,1.3826377626540234,0.0,0.0,0.0,0.75,1.0,STOPPED,True,False,False,,,False,False,0,None,25.0,10.0
1765899606.4086373,19.02128005027771,-0.42976695458405995,-0.06335502826010385,1.3838768883912431,0.0,0.0,0.0,0.75,1.0,STOPPED,True,False,False,,,False,False,0,None,25.0,10.0
1765899606.5180483,19.130691051483154,-0.4294386328604426,-0.06327054888201764,1.385626848566301,0.0,0.0,0.0,0.75,1.0,STOPPED,True,False,False,,,False,False,0,None,25.0,10.0
1765899606.6180499,19.230692386627197,-0.43005308635863027,-0.06329653658732348,1.381814694686021,0.0,0.0,0.0,0.75,1.0,STOPPED,True,False,False,,,False,False,0,None,25.0,10.0
1765899606.7180493,19.330692052841187,-0.43006660552143167,-0.06329714175872907,1.3800055079800586,0.0,0.0,0.0,0.75,1.0,STOPPED,True,False,False,,,False,False,0,None,25.0,10.0
1765899606.828309,19.440951824188232,-0.43020818857879195,-0.06355551705305246,1.3829081507436758,0.0,0.0,0.0,0.75,1.0,STOPPED,True,False,False,,,False,False,0,None,25.0,10.0
1765899606.9380991,19.55074191093445,-0.4302086296516606,-0.06355632196813256,1.3834238840159694,0.0,0.0,0.0,0.75,1.0,STOPPED,True,False,False,,,False,False,0,None,25.0,10.0
1765899607.0381784,19.650821208953857,-0.42948143628761626,-0.06391677566054134,1.3865149855115897,0.0,0.0,0.0,0.75,1.0,STOPPED,True,False,False,,,False,False,0,None,25.0,10.0
1765899607.1481953,19.76083779335022,-0.42960633481905935,-0.06436616040322965,1.3889231061311094,0.0,0.0,0.0,0.75,1.0,STOPPED,True,False,False,,,False,False,0,None,25.0,10.0
1765899607.2482207,19.86086344718933,-0.4296063565884427,-0.0643662381177209,1.3889908518991003,0.0,0.0,0.0,0.75,1.0,STOPPED,True,False,False,,,False,False,0,None,25.0,10.0
1765899607.3483043,19.960947036743164,-0.4297290179570242,-0.06415025086657263,1.3882613126721823,0.0,0.0,0.0,0.75,1.0,STOPPED,True,False,False,,,False,False,0,None,25.0,10.0
1765899607.4483268,20.060969591140747,-0.4302609403576753,-0.06416697326533936,1.388529937314038,0.0,0.0,0.0,0.75,1.0,STOPPED,True,False,False,,,False,False,0,None,25.0,10.0
1765899607.5485754,20.161218404769897,-0.43026103242985186,-0.06416697616644056,1.3885264542444933,0.0,0.0,0.0,0.75,1.0,STOPPED,True,False,False,,,False,False,0,None,25.0,10.0
1765899607.6580455,20.2706880569458,-0.43069982524607486,-0.0639466464508717,1.3900167422571519,0.0,0.0,0.0,0.75,1.0,STOPPED,True,False,False,,,False,False,0,None,25.0,10.0
1765899607.7581851,20.37082839012146,-0.4306998542552367,-0.0639466318845886,1.390054640505923,0.0,0.0,0.0,0.75,1.0,STOPPED,True,False,False,,,False,False,0,None,25.0,10.0
1765899607.8681953,20.48083806037903,-0.43032918976173107,-0.06349060505980351,1.3916447907256382,0.0,0.0,0.0,0.75,1.0,STOPPED,True,False,False,,,False,False,0,None,25.0,10.0
1765899607.96845,20.581092596054077,-0.42999888185463847,-0.06385529591370498,1.3886110605789872,0.0,0.0,0.0,0.75,1.0,STOPPED,True,False,False,,,False,False,0,None,25.0,10.0
1765899608.0783117,20.690954446792603,-0.42999887866886227,-0.06385529943117618,1.3885484666394312,0.0,0.0,0.0,0.75,1.0,STOPPED,True,False,False,,,False,False,0,None,25.0,10.0
1765899608.1882186,20.800861120224,-0.4307798381544946,-0.06492274414737426,1.393832379217292,0.0,0.0,0.0,0.75,1.0,STOPPED,True,False,False,,,False,False,0,None,25.0,10.0
1765899608.2882316,20.900874614715576,-0.4307798385742529,-0.06492274472111566,1.3938258350955968,0.0,0.0,0.0,0.75,1.0,STOPPED,True,False,False,,,False,False,0,None,25.0,10.0
1765899608.3981984,21.010840892791748,-0.4301773103617805,-0.06529182712530154,1.3949401976310138,0.0,0.0,0.0,0.75,1.0,STOPPED,True,False,False,,,False,False,0,None,25.0,10.0
1765899608.508328,21.120970964431763,-0.4300444235233308,-0.06556438395804656,1.3968394404943352,0.0,0.0,0.0,0.75,1.0,STOPPED,True,False,False,,,False,False,0,None,25.0,10.0
1765899608.6084704,21.221113204956055,-0.4299265705246917,-0.06512774286591856,1.3962628012182288,0.0,0.0,0.0,0.75,1.0,STOPPED,True,False,False,,,False,False,0,None,25.0,10.0
1765899608.7180462,21.33068871498108,-0.4299196151969769,-0.06510197362506968,1.3958767755262294,0.0,0.0,0.0,0.75,1.0,STOPPED,True,False,False,,,False,False,0,None,25.0,10.0
1765899608.8180552,21.430697679519653,-0.4303647406667114,-0.06582829187451954,1.397560407605372,0.0,0.0,0.0,0.75,1.0,STOPPED,True,False,False,,,False,False,0,None,25.0,10.0
1765899608.9182525,21.530894994735718,-0.42989480956336956,-0.06599487531913224,1.3937647265758795,0.0,0.0,0.0,0.75,1.0,STOPPED,True,False,False,,,False,False,0,None,25.0,10.0
1765899609.0183635,21.631006479263306,-0.42988437839463084,-0.06599815481333575,1.3919716180616017,0.0,0.0,0.0,0.75,1.0,STOPPED,True,False,False,,,False,False,0,None,25.0,10.0
1765899609.1282015,21.740844249725342,-0.4303201488519149,-0.06617841741436878,1.3952570915294427,0.0,0.0,0.0,0.75,1.0,STOPPED,True,False,False,,,False,False,0,None,25.0,10.0
1765899609.2282267,21.840869426727295,-0.43032372097709737,-0.0661798950743415,1.396117294900936,0.0,0.0,0.0,0.75,1.0,STOPPED,True,False,False,,,False,False,0,None,25.0,10.0
1765899609.3380468,21.950689554214478,-0.43013285764373593,-0.06479885261316758,1.3948162426566322,0.0,0.0,0.0,0.75,1.0,STOPPED,True,False,False,,,False,False,0,None,25.0,10.0
1765899609.4380505,22.05069327354431,-0.42946615091582807,-0.06570859825338582,1.3982493092795192,0.0,0.0,0.0,0.75,1.0,STOPPED,True,False,False,,,False,False,0,None,25.0,10.0
1765899609.5381498,22.150792598724365,-0.4294653593710151,-0.06570968065942671,1.3986607694928086,0.0,0.0,0.0,0.75,1.0,STOPPED,True,False,False,,,False,False,0,None,25.0,10.0
1765899609.6483881,22.261030912399292,-0.42976394618396846,-0.06509858891926693,1.4004865925435022,0.0,0.0,0.0,0.75,1.0,STOPPED,True,False,False,,,False,False,0,None,25.0,10.0
1765899609.7581735,22.370816230773926,-0.43009273456621133,-0.06632975286083086,1.4019373404932498,0.0,0.0,0.0,0.75,1.0,STOPPED,True,False,False,,,False,False,0,None,25.0,10.0
1765899609.8685675,22.481210470199585,-0.43009275629944105,-0.06632983426168382,1.4019403145543148,0.0,0.0,0.0,0.75,1.0,STOPPED,True,False,False,,,False,False,0,None,25.0,10.0
1765899609.9781003,22.59074306488037,-0.42974683789311885,-0.06564996552944302,1.3988247772730036,0.0,0.0,0.0,0.75,1.0,STOPPED,True,False,False,,,False,False,0,None,25.0,10.0
1765899610.0882776,22.700920343399048,-0.4297468366187458,-0.0656499630247876,1.3987808822163084,0.0,0.0,0.0,0.75,1.0,STOPPED,True,False,False,,,False,False,0,None,25.0,10.0
1765899610.1887376,22.801380395889282,-0.430203835192427,-0.06645085092393765,1.4020625827333086,0.0,0.0,0.0,0.75,1.0,STOPPED,True,False,False,,,False,False,0,None,25.0,10.0
1765899610.2982347,22.910877227783203,-0.4297653006085757,-0.06602139900354358,1.3990638684006456,0.0,0.0,0.0,0.75,1.0,STOPPED,True,False,False,,,False,False,0,None,25.0,10.0
1765899610.408484,23.021126985549927,-0.4295614413175634,-0.06590166642483934,1.3967847484250875,0.0,0.0,0.0,0.75,1.0,STOPPED,True,False,False,,,False,False,0,None,25.0,10.0
1765899610.518098,23.130740642547607,-0.4295494101627159,-0.06589460017456958,1.3953201369160357,0.0,0.0,0.0,0.75,1.0,STOPPED,True,False,False,,,False,False,0,None,25.0,10.0
1765899610.6183405,23.23098397254944,-0.42976150282708736,-0.06613711572920658,1.4000643126242664,0.0,0.0,0.0,0.75,1.0,STOPPED,True,False,False,,,False,False,0,None,25.0,10.0
1765899610.7282178,23.340860605239868,-0.42935929763094927,-0.06667457983524305,1.403747588711747,0.0,0.0,0.0,0.75,1.0,STOPPED,True,False,False,,,False,False,0,None,25.0,10.0
1765899610.8380451,23.450687646865845,-0.42935803027338915,-0.06667623776284677,1.4040119474067847,0.0,0.0,0.0,0.75,1.0,STOPPED,True,False,False,,,False,False,0,None,25.0,10.0
1765899610.9384184,23.551061153411865,-0.42940569354286584,-0.0669269046631949,1.4011396268542438,0.0,0.0,0.0,0.75,1.0,STOPPED,True,False,False,,,False,False,0,None,25.0,10.0
1765899611.0485234,23.661166429519653,-0.42940575015014987,-0.06692720236774775,1.4007780672389876,0.0,0.0,0.0,0.75,1.0,STOPPED,True,False,False,,,False,False,0,None,25.0,10.0
1765899611.158048,23.77069067955017,-0.4295475168710345,-0.06715155507737758,1.3968039627535092,0.0,0.0,0.0,0.75,1.0,STOPPED,True,False,False,,,False,False,0,None,25.0,10.0
1765899611.2580533,23.87069582939148,-0.43003348128987273,-0.06677673166629053,1.400898310762594,0.0,0.0,0.0,0.75,1.0,STOPPED,True,False,False,,,False,False,0,None,25.0,10.0
1765899611.3682005,23.98084330558777,-0.43003351341701057,-0.06677670688524498,1.4010775835865772,0.0,0.0,0.0,0.75,1.0,STOPPED,True,False,False,,,False,False,0,None,25.0,10.0
1765899611.4686368,24.081279516220093,-0.4296469272577832,-0.06674647963116274,1.3991661747848863,0.0,0.0,0.0,0.75,1.0,STOPPED,True,False,False,,,False,False,0,None,25.0,10.0
1765899611.5780563,24.190699338912964,-0.4301307737982059,-0.06755475207267198,1.4017691965565344,0.0,0.0,0.0,0.75,1.0,STOPPED,True,False,False,,,False,False,0,None,25.0,10.0
1765899611.688203,24.300846099853516,-0.4301307755807231,-0.06755475505037127,1.401792148143155,0.0,0.0,0.0,0.75,1.0,STOPPED,True,False,False,,,False,False,0,None,25.0,10.0
1765899611.7980504,24.410693168640137,-0.43040038941193387,-0.06814721085754702,1.4045264935030533,0.0,0.0,0.0,0.75,1.0,STOPPED,True,False,False,,,False,False,0,None,25.0,10.0
1765899611.908207,24.520849466323853,-0.43043295251257846,-0.06814941262604081,1.4022075667738187,0.0,0.0,0.0,0.75,1.0,STOPPED,True,False,False,,,False,False,0,None,25.0,10.0
1765899612.018049,24.630691528320312,-0.43038896398356546,-0.06781115538876337,1.403127191926603,0.0,0.0,0.0,0.75,1.0,STOPPED,True,False,False,,,False,False,0,None,25.0,10.0
1765899612.1282005,24.740843057632446,-0.4303879654719461,-0.06780379574086613,1.4041015245200823,0.0,0.0,0.0,0.75,1.0,STOPPED,True,False,False,,,False,False,0,None,25.0,10.0
1765899612.2282984,24.840940952301025,-0.43006000530295435,-0.06831624454787487,1.407644584144844,0.0,0.0,0.0,0.75,1.0,STOPPED,True,False,False,,,False,False,0,None,25.0,10.0
1765899612.3382192,24.950862169265747,-0.43005898361051026,-0.0683178409767231,1.4082324994911302,0.0,0.0,0.0,0.75,1.0,STOPPED,True,False,False,,,False,False,0,None,25.0,10.0
1765899612.4482136,25.060856103897095,-0.4291602935784026,-0.06860723817649725,1.4081759988164801,0.0,0.0,0.0,0.75,1.0,STOPPED,True,False,False,,,False,False,0,None,25.0,10.0
1765899612.5580814,25.170724153518677,-0.42971554754803337,-0.06890429111266128,1.4058416319294018,0.0,0.0,0.0,0.75,1.0,STOPPED,True,False,False,,,False,False,0,None,25.0,10.0
1765899612.6682196,25.28086256980896,-0.42971558426686246,-0.0689043107479234,1.405738576127166,0.0,0.0,0.0,0.75,1.0,STOPPED,True,False,False,,,False,False,0,None,25.0,10.0
1765899612.7780461,25.39068865776062,-0.4297079399782743,-0.06820197415659997,1.408537049807351,0.0,0.0,0.0,0.75,1.0,STOPPED,True,False,False,,,False,False,0,None,25.0,10.0
1765899612.888204,25.50084686279297,-0.4297079399501125,-0.06820197156917232,1.4085505452090192,0.0,0.0,0.0,0.75,1.0,STOPPED,True,False,False,,,False,False,0,None,25.0,10.0
1765899612.9882276,25.60086989402771,-0.4292693234530702,-0.06848732375799962,1.4052344545126658,0.0,0.0,0.0,0.75,1.0,STOPPED,True,False,False,,,False,False,0,None,25.0,10.0
1765899613.0882294,25.70087194442749,-0.4293258920374925,-0.06805055701583042,1.4083809174810682,0.0,0.0,0.0,0.75,1.0,STOPPED,True,False,False,,,False,False,0,None,25.0,10.0
1765899613.1980488,25.810691595077515,-0.4293506677077395,-0.06809016470874409,1.4077265254624312,0.0,0.0,0.0,0.75,1.0,STOPPED,True,False,False,,,False,False,0,None,25.0,10.0
1765899613.2980633,25.91070580482483,-0.4293659798870247,-0.06811464374111185,1.4057439063190227,0.0,0.0,0.0,0.75,1.0,STOPPED,True,False,False,,,False,False,0,None,25.0,10.0
1765899613.4082243,26.020866870880127,-0.42913600220767517,-0.06743052075361375,1.4021815337225743,0.0,0.0,0.0,0.75,1.0,STOPPED,True,False,False,,,False,False,0,None,25.0,10.0
1765899613.5180798,26.130722522735596,-0.4292739540800138,-0.06857315933361138,1.4045258960345324,0.0,0.0,0.0,0.75,1.0,STOPPED,True,False,False,,,False,False,0,None,25.0,10.0
1765899613.6281667,26.240809202194214,-0.42927724961199026,-0.068598888913329,1.4064268145602874,0.0,0.0,0.0,0.75,1.0,STOPPED,True,False,False,,,False,False,0,None,25.0,10.0
1765899613.72817,26.34081244468689,-0.43009521988904464,-0.06810610190783864,1.4072865819756561,0.0,0.0,0.0,0.75,1.0,STOPPED,True,False,False,,,False,False,0,None,25.0,10.0
1765899613.8286145,26.441256999969482,-0.430192069394106,-0.06821316931813656,1.4060183275465548,0.0,0.0,0.0,0.75,1.0,STOPPED,True,False,False,,,False,False,0,None,25.0,10.0
1765899613.9381325,26.550775051116943,-0.43019236317173964,-0.06821350764632939,1.4057623339883758,0.0,0.0,0.0,0.75,1.0,STOPPED,True,False,False,,,False,False,0,None,25.0,10.0
1765899614.0482028,26.660845279693604,-0.42999261475592393,-0.06877508389306708,1.409987408360057,0.0,0.0,0.0,0.75,1.0,STOPPED,True,False,False,,,False,False,0,None,25.0,10.0
1765899614.1482415,26.760884046554565,-0.42999258017944575,-0.0687751811019924,1.41020649168608,0.0,0.0,0.0,0.75,1.0,STOPPED,True,False,False,,,False,False,0,None,25.0,10.0
1765899614.2580552,26.87069797515869,-0.43015089323891403,-0.06851916548628888,1.4035344699059307,0.0,0.0,0.0,0.75,1.0,STOPPED,True,False,False,,,False,False,0,None,25.0,10.0
1765899614.3580782,26.970746278762817,-0.43021217295137915,-0.06766061107373582,1.406745611874233,0.0,0.0,0.0,0.75,1.0,STOPPED,True,False,False,,,False,False,0,None,25.0,10.0
1765899614.4681926,27.080835342407227,-0.4302121770019759,-0.06766055431467453,1.4069022929542419,0.0,0.0,0.0,0.75,1.0,STOPPED,True,False,False,,,False,False,0,None,25.0,10.0
1765899614.5681987,27.180841207504272,-0.431011919897181,-0.06714529957664973,1.4105689813402993,0.0,0.0,0.0,0.75,1.0,STOPPED,True,False,False,,,False,False,0,None,25.0,10.0
1765899614.668219,27.280861854553223,-0.43101192761067203,-0.0671452946070366,1.4106108483259234,0.0,0.0,0.0,0.75,1.0,STOPPED,True,False,False,,,False,False,0,None,25.0,10.0
1765899614.7684083,27.381051301956177,-0.431160377194701,-0.06827276342328173,1.4109300419212278,0.0,0.0,0.0,0.75,1.0,STOPPED,True,False,False,,,False,False,0,None,25.0,10.0
1765899614.8781476,27.490790128707886,-0.43049065141941306,-0.06702973171651247,1.4099680488603852,0.0,0.0,0.0,0.75,1.0,STOPPED,True,False,False,,,False,False,0,None,25.0,10.0
1765899614.9881964,27.600839138031006,-0.4304906489521196,-0.06702972713711106,1.4099401495310326,0.0,0.0,0.0,0.75,1.0,STOPPED,True,False,False,,,False,False,0,None,25.0,10.0
1765899615.088383,27.70102572441101,-0.43056983802865234,-0.06722826773031469,1.41185732383311,0.0,0.0,0.0,0.75,1.0,STOPPED,True,False,False,,,False,False,0,None,25.0,10.0
1765899615.1885707,27.801213264465332,-0.43056983807121574,-0.06722826783702837,1.4118484779878848,0.0,0.0,0.0,0.75,1.0,STOPPED,True,False,False,,,False,False,0,None,25.0,10.0
1765899615.2980475,27.91069006919861,-0.43072584790901824,-0.06685065908657174,1.4063090104006832,0.0,0.0,0.0,0.75,1.0,STOPPED,True,False,False,,,False,False,0,None,25.0,10.0
1765899615.398052,28.01069474220276,-0.4308911376240431,-0.06642503420245058,1.407687131540742,0.0,0.0,0.0,0.75,1.0,STOPPED,True,False,False,,,False,False,0,None,25.0,10.0
1765899615.5082066,28.12084937095642,-0.4310147659930197,-0.06812395141857128,1.41065300090591,0.0,0.0,0.0,0.75,1.0,STOPPED,True,False,False,,,False,False,0,None,25.0,10.0
1765899615.6180482,28.230690717697144,-0.4313487138599094,-0.06784167192865509,1.4082416690450614,0.0,0.0,0.0,0.75,1.0,STOPPED,True,False,False,,,False,False,0,None,25.0,10.0
1765899615.71805,28.330692529678345,-0.431355818269003,-0.0678333519195197,1.4064983954831183,0.0,0.0,0.0,0.75,1.0,STOPPED,True,False,False,,,False,False,0,None,25.0,10.0
1765899615.8282,28.440842866897583,-0.4308695041089509,-0.06769870354754376,1.4017838340609234,0.0,0.0,0.0,0.75,1.0,STOPPED,True,False,False,,,False,False,0,None,25.0,10.0
1765899615.9282575,28.540900468826294,-0.4308679890977125,-0.0676982840783916,1.401003761967491,0.0,0.0,0.0,0.75,1.0,STOPPED,True,False,False,,,False,False,0,None,25.0,10.0
1765899616.0380456,28.650688409805298,-0.4314774622733824,-0.06857671756669668,1.406454338675899,0.0,0.0,0.0,0.75,1.0,STOPPED,True,False,False,,,False,False,0,None,25.0,10.0
1765899616.1380477,28.7506902217865,-0.43179951589501836,-0.06734264402650275,1.4061566111047545,0.0,0.0,0.0,0.75,1.0,STOPPED,True,False,False,,,False,False,0,None,25.0,10.0
1765899616.2482018,28.860844373703003,-0.4317998975227336,-0.06734117714053796,1.4060294786198622,0.0,0.0,0.0,0.75,1.0,STOPPED,True,False,False,,,False,False,0,None,25.0,10.0
1765899616.348215,28.96085786819458,-0.43199451638372793,-0.0682116036776219,1.40872534305627,0.0,0.0,0.0,0.75,1.0,STOPPED,True,False,False,,,False,False,0,None,25.0,10.0
1765899616.4580462,29.070688724517822,-0.43199455007229065,-0.06821175434862495,1.4088595062846254,0.0,0.0,0.0,0.75,1.0,STOPPED,True,False,False,,,False,False,0,None,25.0,10.0
1765899616.5581286,29.17077112197876,-0.4312252402075253,-0.06736916686251203,1.4051840341049022,0.0,0.0,0.0,0.75,1.0,STOPPED,True,False,False,,,False,False,0,None,25.0,10.0
1765899616.6681957,29.28083848953247,-0.43143492305459746,-0.06760249040118795,1.4084836970213956,0.0,0.0,0.0,0.75,1.0,STOPPED,True,False,False,,,False,False,0,None,25.0,10.0
1765899616.7682042,29.380846738815308,-0.43143492507746745,-0.06760249265211786,1.4085431076602806,0.0,0.0,0.0,0.75,1.0,STOPPED,True,False,False,,,False,False,0,None,25.0,10.0
1765899616.8685026,29.48114514350891,-0.43049621619629264,-0.06787622412410113,1.409025837539354,0.0,0.0,0.0,0.75,1.0,STOPPED,True,False,False,,,False,False,0,None,25.0,10.0
1765899616.9685311,29.58117365837097,-0.4304962071424797,-0.0678762267642312,1.4090189214787117,0.0,0.0,0.0,0.75,1.0,STOPPED,True,False,False,,,False,False,0,None,25.0,10.0
1765899617.0780442,29.69068717956543,-0.4307266129698534,-0.06776449676676072,1.4027226048544854,0.0,0.0,0.0,0.75,1.0,STOPPED,True,False,False,,,False,False,0,None,25.0,10.0
1765899617.178054,29.790696620941162,-0.43089259228595134,-0.06794740477830352,1.4064698145616532,0.0,0.0,0.0,0.75,1.0,STOPPED,True,False,False,,,False,False,0,None,25.0,10.0
1765899617.288272,29.900914430618286,-0.4308925928974211,-0.06794740545214305,1.4065391907327314,0.0,0.0,0.0,0.75,1.0,STOPPED,True,False,False,,,False,False,0,None,25.0,10.0
1765899617.3981383,30.010780811309814,-0.43088327833845885,-0.068047479989699,1.4102618577376145,0.0,0.0,0.0,0.75,1.0,STOPPED,True,False,False,,,False,False,0,None,25.0,10.0
1765899617.5082254,30.12086844444275,-0.4319470133461055,-0.0688705015207999,1.4062728231209656,0.0,0.0,0.0,0.75,1.0,STOPPED,True,False,False,,,False,False,0,None,25.0,10.0
1765899617.618145,30.23078751564026,-0.4318231976931369,-0.06985285315384195,1.4086483818667164,0.0,0.0,0.0,0.75,1.0,STOPPED,True,False,False,,,False,False,0,None,25.0,10.0
1765899617.7284825,30.34112548828125,-0.43181913943529,-0.0698731621119661,1.4106540128518095,0.0,0.0,0.0,0.75,1.0,STOPPED,True,False,False,,,False,False,0,None,25.0,10.0
1765899617.8380475,30.450690031051636,-0.431674201585697,-0.0681419213495469,1.40780005875928,0.0,0.0,0.0,0.75,1.0,STOPPED,True,False,False,,,False,False,0,None,25.0,10.0
1765899617.9382396,30.550882577896118,-0.43190202971277253,-0.0685724336028496,1.404472531390816,0.0,0.0,0.0,0.75,1.0,STOPPED,True,False,False,,,False,False,0,None,25.0,10.0
1765899618.0482295,30.660871982574463,-0.43190230082886555,-0.06857295130322383,1.4041666001735296,0.0,0.0,0.0,0.75,1.0,STOPPED,True,False,False,,,False,False,0,None,25.0,10.0
1765899618.1580446,30.770687341690063,-0.43219704002112064,-0.06794242653431615,1.4076164178682724,0.0,0.0,0.0,0.75,1.0,STOPPED,True,False,False,,,False,False,0,None,25.0,10.0
1765899618.2580447,30.870687246322632,-0.43219705950671067,-0.06794238484950636,1.407759383853227,0.0,0.0,0.0,0.75,1.0,STOPPED,True,False,False,,,False,False,0,None,25.0,10.0
1765899618.3580463,30.970688819885254,-0.4320438971892407,-0.06798093969911638,1.404652676296946,0.0,0.0,0.0,0.75,1.0,STOPPED,True,False,False,,,False,False,0,None,25.0,10.0
1765899618.4684184,31.081060886383057,-0.4319105062437483,-0.06824787372739385,1.4021227809907577,0.0,0.0,0.0,0.75,1.0,STOPPED,True,False,False,,,False,False,0,None,25.0,10.0
1765899618.578047,31.19068956375122,-0.431910504957294,-0.06824787630193929,1.40211921108979,0.0,0.0,0.0,0.75,1.0,STOPPED,True,False,False,,,False,False,0,None,25.0,10.0
1765899618.688436,31.30107855796814,-0.4324113832779389,-0.06753548980051215,1.4008737186298266,0.0,0.0,0.0,0.75,1.0,STOPPED,True,False,False,,,False,False,0,None,25.0,10.0
1765899618.7982824,31.41092538833618,-0.4322043855777333,-0.0672890485558759,1.3997200882113123,0.0,0.0,0.0,0.75,1.0,STOPPED,True,False,False,,,False,False,0,None,25.0,10.0
1765899618.908464,31.521106719970703,-0.43227443687163536,-0.06698661819838406,1.398298101803305,0.0,0.0,0.0,0.75,1.0,STOPPED,True,False,False,,,False,False,0,None,25.0,10.0
1765899619.018052,31.63069462776184,-0.43228612122461263,-0.06697775846613804,1.3997032117459192,0.0,0.0,0.0,0.75,1.0,STOPPED,True,False,False,,,False,False,0,None,25.0,10.0
1765899619.1180608,31.730703592300415,-0.43172347785679244,-0.06767837721846977,1.3999843130508633,0.0,0.0,0.0,0.75,1.0,STOPPED,True,False,False,,,False,False,0,None,25.0,10.0
1765899619.2182078,31.830851554870605,-0.43171124082313606,-0.06769361510400904,1.4000968125503963,0.0,0.0,0.0,0.75,1.0,STOPPED,True,False,False,,,False,False,0,None,25.0,10.0
1765899619.328198,31.94084072113037,-0.4314434622468001,-0.06747682267859438,1.403072978243257,0.0,0.0,0.0,0.75,1.0,STOPPED,True,False,False,,,False,False,0,None,25.0,10.0
1765899619.4282436,32.040886878967285,-0.43208364595040977,-0.06824318626208489,1.4009800866362196,0.0,0.0,0.0,0.75,1.0,STOPPED,True,False,False,,,False,False,0,None,25.0,10.0
1765899619.53805,32.15069270133972,-0.43208564290940865,-0.0682455758138062,1.4005095191338386,0.0,0.0,0.0,0.75,1.0,STOPPED,True,False,False,,,False,False,0,None,25.0,10.0
1765899619.6380506,32.25069332122803,-0.43178566794624235,-0.06713842266344176,1.403105305347049,0.0,0.0,0.0,0.75,1.0,STOPPED,True,False,False,,,False,False,0,None,25.0,10.0
1765899619.7380636,32.35070610046387,-0.43170196712397313,-0.0675550623666935,1.4037273979407532,0.0,0.0,0.0,0.75,1.0,STOPPED,True,False,False,,,False,False,0,None,25.0,10.0
1765899619.8484423,32.461085081100464,-0.4317018681396153,-0.06755555874979813,1.4037383805057573,0.0,0.0,0.0,0.75,1.0,STOPPED,True,False,False,,,False,False,0,None,25.0,10.0
1765899619.9580493,32.57069182395935,-0.4315876280304541,-0.06727427708564941,1.399338813571517,0.0,0.0,0.0,0.75,1.0,STOPPED,True,False,False,,,False,False,0,None,25.0,10.0
1765899620.0681987,32.68084120750427,-0.43158762047788896,-0.06727425848974544,1.3991812177578407,0.0,0.0,0.0,0.75,1.0,STOPPED,True,False,False,,,False,False,0,None,25.0,10.0
1765899620.168316,32.78095841407776,-0.4320686602801608,-0.06810185946456959,1.4048569760939937,0.0,0.0,0.0,0.75,1.0,STOPPED,True,False,False,,,False,False,0,None,25.0,10.0
1765899620.268354,32.88099670410156,-0.4316274778127819,-0.0672920660034472,1.4001558353932637,0.0,0.0,0.0,0.75,1.0,STOPPED,True,False,False,,,False,False,0,None,25.0,10.0
1765899620.3684235,32.98106622695923,-0.43162747355748243,-0.06729205819282849,1.4000626170744352,0.0,0.0,0.0,0.75,1.0,STOPPED,True,False,False,,,False,False,0,None,25.0,10.0
1765899620.4684458,33.08108854293823,-0.43109310732834427,-0.06710088298778677,1.396495575958598,0.0,0.0,0.0,0.75,1.0,STOPPED,True,False,False,,,False,False,0,None,25.0,10.0
1765899620.5780613,33.19070386886597,-0.4310931021743998,-0.06710088114390828,1.3964689170834896,0.0,0.0,0.0,0.75,1.0,STOPPED,True,False,False,,,False,False,0,None,25.0,10.0
1765899620.688192,33.3008348941803,-0.4313234991050326,-0.0668518476281967,1.3972299832837454,0.0,0.0,0.0,0.75,1.0,STOPPED,True,False,False,,,False,False,0,None,25.0,10.0
1765899620.7882028,33.400845527648926,-0.43134956808129266,-0.06760949115353584,1.396382008251619,0.0,0.0,0.0,0.75,1.0,STOPPED,True,False,False,,,False,False,0,None,25.0,10.0
1765899620.8882017,33.50084447860718,-0.4313495680953045,-0.06760949156076204,1.3963990317815878,0.0,0.0,0.0,0.75,1.0,STOPPED,True,False,False,,,False,False,0,None,25.0,10.0
1765899620.9882169,33.60085940361023,-0.4311714262986241,-0.0684224446930649,1.3937678101816786,0.0,0.0,0.0,0.75,1.0,STOPPED,True,False,False,,,False,False,0,None,25.0,10.0
1765899621.0981681,33.71081066131592,-0.43136043179145966,-0.06865877755031398,1.39531025658588,0.0,0.0,0.0,0.75,1.0,STOPPED,True,False,False,,,False,False,0,None,25.0,10.0
1765899621.2081993,33.820841789245605,-0.4311683070621015,-0.06772524898009005,1.393170908764036,0.0,0.0,0.0,0.75,1.0,STOPPED,True,False,False,,,False,False,0,None,25.0,10.0
1765899621.3082035,33.92084622383118,-0.4311500745715947,-0.06766153486722988,1.3888001206284768,0.0,0.0,0.0,0.75,1.0,STOPPED,True,False,False,,,False,False,0,None,25.0,10.0
1765899621.4180474,34.03068995475769,-0.4312843459423042,-0.06793938634011097,1.3939190886983628,0.0,0.0,0.0,0.75,1.0,STOPPED,True,False,False,,,False,False,0,None,25.0,10.0
1765899621.5281928,34.14083552360535,-0.4312872662364792,-0.06794542938617715,1.3959914669801012,0.0,0.0,0.0,0.75,1.0,STOPPED,True,False,False,,,False,False,0,None,25.0,10.0
1765899621.6282167,34.240859508514404,-0.43124889304209924,-0.0682227312030334,1.396891775200002,0.0,0.0,0.0,0.75,1.0,STOPPED,True,False,False,,,False,False,0,None,25.0,10.0
1765899621.728224,34.340867042541504,-0.4320530393166472,-0.06690375116862832,1.397027382261662,0.0,0.0,0.0,0.75,1.0,STOPPED,True,False,False,,,False,False,0,None,25.0,10.0
1765899621.8381522,34.45079493522644,-0.43205554484130065,-0.06689963946688297,1.397001665330695,0.0,0.0,0.0,0.75,1.0,STOPPED,True,False,False,,,False,False,0,None,25.0,10.0
1765899621.9383888,34.55103158950806,-0.431550750303804,-0.06755850136478456,1.3973048028052588,0.0,0.0,0.0,0.75,1.0,STOPPED,True,False,False,,,False,False,0,None,25.0,10.0
1765899622.0482,34.660842418670654,-0.4315501507845527,-0.0675592838621424,1.3973253229539395,0.0,0.0,0.0,0.75,1.0,STOPPED,True,False,False,,,False,False,0,None,25.0,10.0
1765899622.148322,34.76096439361572,-0.43172117156654194,-0.06675167257661664,1.3957532521771432,0.0,0.0,0.0,0.75,1.0,STOPPED,True,False,False,,,False,False,0,None,25.0,10.0
1765899622.258085,34.87072801589966,-0.43177872743860973,-0.06669862887656546,1.3965249914295388,0.0,0.0,0.0,0.75,1.0,STOPPED,True,False,False,,,False,False,0,None,25.0,10.0
1765899622.3682284,34.980870962142944,-0.43177873738813993,-0.0666986197579859,1.3965796192749682,0.0,0.0,0.0,0.75,1.0,STOPPED,True,False,False,,,False,False,0,None,25.0,10.0
1765899622.4682891,35.080931663513184,-0.4315794480829522,-0.06627870187106366,1.3922474683912798,0.0,0.0,0.0,0.75,1.0,STOPPED,True,False,False,,,False,False,0,None,25.0,10.0
1765899622.5780716,35.19071435928345,-0.43098374680562657,-0.06687309390218665,1.398276816573702,0.0,0.0,0.0,0.75,1.0,STOPPED,True,False,False,,,False,False,0,None,25.0,10.0
1765899622.6881936,35.30083632469177,-0.4309837446110639,-0.06687309609198042,1.3983440304432087,0.0,0.0,0.0,0.75,1.0,STOPPED,True,False,False,,,False,False,0,None,25.0,10.0
1765899622.7882664,35.400909423828125,-0.43230508486789915,-0.06753004972456751,1.399792497181572,0.0,0.0,0.0,0.75,1.0,STOPPED,True,False,False,,,False,False,0,None,25.0,10.0
1765899622.8980608,35.510703325271606,-0.43204746545966793,-0.06728979709442691,1.3987494397759548,0.0,0.0,0.0,0.75,1.0,STOPPED,True,False,False,,,False,False,0,None,25.0,10.0
1765899622.998072,35.61071467399597,-0.4318278238355841,-0.06710207228637108,1.3967564476207546,0.0,0.0,0.0,0.75,1.0,STOPPED,True,False,False,,,False,False,0,None,25.0,10.0
1765899623.108198,35.72084045410156,-0.4317904798400741,-0.0670778203209309,1.3999226854912807,0.0,0.0,0.0,0.75,1.0,STOPPED,True,False,False,,,False,False,0,None,25.0,10.0
1765899623.2082355,35.82087802886963,-0.43221459407220053,-0.06615836779803236,1.3986252424292651,0.0,0.0,0.0,0.75,1.0,STOPPED,True,False,False,,,False,False,0,None,25.0,10.0
1765899623.3180163,35.93065929412842,-0.4322396240144864,-0.06610410448491308,1.3977698614115344,0.0,0.0,0.0,0.75,1.0,STOPPED,True,False,False,,,False,False,0,None,25.0,10.0
1765899623.4180505,36.03069305419922,-0.4322786554126734,-0.06613482403070432,1.3977730659789946,0.0,0.0,0.0,0.75,1.0,STOPPED,True,False,False,,,False,False,0,None,25.0,10.0
1765899623.5180533,36.130695819854736,-0.4318153399084161,-0.06560994673741839,1.3939867904966903,0.0,0.0,0.0,0.75,1.0,STOPPED,True,False,False,,,False,False,0,None,25.0,10.0
1765899623.6282442,36.240886926651,-0.43180524470762,-0.06559851654901579,1.392493801791538,0.0,0.0,0.0,0.75,1.0,STOPPED,True,False,False,,,False,False,0,None,25.0,10.0
1765899623.7380877,36.350730419158936,-0.43213896847382155,-0.06625500446831731,1.399230705475099,0.0,0.0,0.0,0.75,1.0,STOPPED,True,False,False,,,False,False,0,None,25.0,10.0
1765899623.848307,36.460949420928955,-0.43213936482086546,-0.06625578414621945,1.4000299769567164,0.0,0.0,0.0,0.75,1.0,STOPPED,True,False,False,,,False,False,0,None,25.0,10.0
1765899623.9580534,36.570695877075195,-0.43248819742888084,-0.06620516717571168,1.3911058779871093,0.0,0.0,0.0,0.75,1.0,STOPPED,True,False,False,,,False,False,0,None,25.0,10.0
1765899624.0582132,36.6708562374115,-0.43271083064042626,-0.06532736090551694,1.3993806951904322,0.0,0.0,0.0,0.75,1.0,STOPPED,True,False,False,,,False,False,0,None,25.0,10.0
1765899624.1681652,36.780807971954346,-0.43271084535749094,-0.06532730287279936,1.3997250343321967,0.0,0.0,0.0,0.75,1.0,STOPPED,True,False,False,,,False,False,0,None,25.0,10.0
1765899624.2681868,36.88082933425903,-0.4328299939555618,-0.06511189316133133,1.3965938267085347,0.0,0.0,0.0,0.75,1.0,STOPPED,True,False,False,,,False,False,0,None,25.0,10.0
1765899624.3780441,36.990686655044556,-0.4328299951047461,-0.06511189108371183,1.396531377417685,0.0,0.0,0.0,0.75,1.0,STOPPED,True,False,False,,,False,False,0,None,25.0,10.0
1765899624.4780452,37.09068775177002,-0.4330812008683437,-0.06521028233207558,1.3908703209533302,0.0,0.0,0.0,0.75,1.0,STOPPED,True,False,False,,,False,False,0,None,25.0,10.0
1765899624.5781033,37.19074606895447,-0.4331250694014382,-0.06546560600696691,1.3977220822706817,0.0,0.0,0.0,0.75,1.0,STOPPED,True,False,False,,,False,False,0,None,25.0,10.0
1765899624.6883688,37.30101180076599,-0.4331250695630482,-0.06546560694758534,1.3978118562096506,0.0,0.0,0.0,0.75,1.0,STOPPED,True,False,False,,,False,False,0,None,25.0,10.0
1765899624.7980423,37.410685300827026,-0.4338254244235213,-0.06552443216666962,1.3937004920110816,0.0,0.0,0.0,0.75,1.0,STOPPED,True,False,False,,,False,False,0,None,25.0,10.0
1765899624.8981588,37.51080131530762,-0.43401012378732584,-0.06562580470813734,1.398374322269082,0.0,0.0,0.0,0.75,1.0,STOPPED,True,False,False,,,False,False,0,None,25.0,10.0
